joint_trajectory:
  header:
    frame_id: base
    seq: 0
    stamp:
      nsecs: 0
      secs: 0
  joint_names:
  - joint_1
  - joint_2
  - joint_3
  - joint_4
  - joint_5
  - joint_6
  points:
  - accelerations:
    - 0.0010251727672041266
    - 0.0
    - 0.0
    - 0.0
    - 0.0
    - 0.0
    effort: []
    positions:
    - -1.245624463743411
    - 0.8996443354847983
    - 0.8218337654273643
    - 2.9676583555486347
    - -1.572349361677236
    - -3.689481978822709
    time_from_start:
      nsecs: 0
      secs: 0
    velocities:
    - 0.0
    - 0.0
    - 0.0
    - 0.0
    - 0.0
    - 0.0
  - accelerations:
    - -0.0010251727672041266
    - 0.24666683398938546
    - 0.7783624280662111
    - -0.9292175040822197
    - -0.0021078797523499415
    - -0.07961815884744815
    effort: []
    positions:
    - -1.245609969217611
    - 0.8961568074274294
    - 0.8108287966491156
    - 2.9807962065700835
    - -1.5723195591713255
    - -3.6883562881152647
    time_from_start:
      nsecs: 168158364
      secs: 0
    velocities:
    - 0.0
    - 0.0
    - 0.0
    - 0.0
    - 0.0
    - 0.0
multi_dof_joint_trajectory:
  header:
    frame_id: ''
    seq: 0
    stamp:
      nsecs: 0
      secs: 0
  joint_names: []
  points: []
---
joint_trajectory:
  header:
    frame_id: base
    seq: 0
    stamp:
      nsecs: 0
      secs: 0
  joint_names:
  - joint_1
  - joint_2
  - joint_3
  - joint_4
  - joint_5
  - joint_6
  points:
  - accelerations:
    - -0.041299774722148595
    - 0.0
    - 0.0
    - 0.0
    - 0.0
    - 0.0
    effort: []
    positions:
    - -1.245609969217611
    - 0.8961568074274294
    - 0.8108287966491156
    - 2.9807962065700835
    - -1.5723195591713255
    - -3.6883562881152647
    time_from_start:
      nsecs: 0
      secs: 0
    velocities:
    - 0.0
    - 0.0
    - 0.0
    - 0.0
    - 0.0
    - 0.0
  - accelerations:
    - 0.041299774722148595
    - -0.28256032200602366
    - 0.4023255347052115
    - -0.9650650555811795
    - 0.27130272560255636
    - 0.04642182673959423
    effort: []
    positions:
    - -1.2496709571794373
    - 0.9239408346739715
    - 0.7712683108071193
    - 3.075690612156093
    - -1.5989966321116722
    - -3.6929209251096253
    time_from_start:
      nsecs: 443462609
      secs: 0
    velocities:
    - 0.0
    - 0.0
    - 0.0
    - 0.0
    - 0.0
    - 0.0
multi_dof_joint_trajectory:
  header:
    frame_id: ''
    seq: 0
    stamp:
      nsecs: 0
      secs: 0
  joint_names: []
  points: []
---
joint_trajectory:
  header:
    frame_id: base
    seq: 0
    stamp:
      nsecs: 0
      secs: 0
  joint_names:
  - joint_1
  - joint_2
  - joint_3
  - joint_4
  - joint_5
  - joint_6
  points:
  - accelerations:
    - 0.04028021663336695
    - 0.0
    - 0.0
    - 0.0
    - 0.0
    - 0.0
    effort: []
    positions:
    - -1.2496709571794373
    - 0.9239408346739715
    - 0.7712683108071193
    - 3.075690612156093
    - -1.5989966321116722
    - -3.6929209251096253
    time_from_start:
      nsecs: 0
      secs: 0
    velocities:
    - 0.0
    - 0.0
    - 0.0
    - 0.0
    - 0.0
    - 0.0
  - accelerations:
    - -1.0452048240455878e-15
    - -1.1587289435112134e-15
    - 3.1316998473276037e-16
    - 2.5053598778620826e-16
    - 5.950229709922446e-16
    - 8.61217458015091e-17
    effort: []
    positions:
    - -1.2457159978183259
    - 0.8963993180645111
    - 0.811049691186724
    - 2.98087228615032
    - -1.5720247352631347
    - -3.688922589439842
    time_from_start:
      nsecs: 443139141
      secs: 0
    velocities:
    - 0.008924870302747363
    - -0.0621509454932365
    - 0.08977175943786754
    - -0.2139696478922471
    - 0.060865525840608184
    - 0.009022754476454755
  - accelerations:
    - -0.040280216633365035
    - 0.2805030732676821
    - -0.405162853358508
    - 0.965699609932891
    - -0.2747016464327486
    - -0.040721992882002296
    effort: []
    positions:
    - -1.2417610384572146
    - 0.8688578014550506
    - 0.8508310715663285
    - 2.8860539601445474
    - -1.5450528384145972
    - -3.684924253770059
    time_from_start:
      nsecs: 886278282
      secs: 0
    velocities:
    - 0.0
    - 0.0
    - 0.0
    - 0.0
    - 0.0
    - 0.0
multi_dof_joint_trajectory:
  header:
    frame_id: ''
    seq: 0
    stamp:
      nsecs: 0
      secs: 0
  joint_names: []
  points: []
---
joint_trajectory:
  header:
    frame_id: base
    seq: 0
    stamp:
      nsecs: 0
      secs: 0
  joint_names:
  - joint_1
  - joint_2
  - joint_3
  - joint_4
  - joint_5
  - joint_6
  points:
  - accelerations:
    - -0.18592707317164123
    - 0.0
    - 0.0
    - 0.0
    - 0.0
    - 0.0
    effort: []
    positions:
    - -1.2417610384572146
    - 0.8688578014550506
    - 0.8508310715663285
    - 2.8860539601445474
    - -1.5450528384145972
    - -3.684924253770059
    time_from_start:
      nsecs: 0
      secs: 0
    velocities:
    - 0.0
    - 0.0
    - 0.0
    - 0.0
    - 0.0
    - 0.0
  - accelerations:
    - -2.4756756612483188e-15
    - 1.856756745936239e-15
    - -1.3203603526657702e-15
    - -1.1553153085825488e-15
    - -2.723243227373151e-15
    - 5.5702702378087176e-15
    effort: []
    positions:
    - -1.2522774634679994
    - 0.8862321433295479
    - 0.8247118829542354
    - 2.9416409872117066
    - -1.5601610867902478
    - -3.6521893376309524
    time_from_start:
      nsecs: 336339401
      secs: 0
    velocities:
    - -0.03126730019112865
    - 0.05165717080244369
    - -0.07765723715478434
    - 0.16527063714701834
    - -0.04491965062643916
    - 0.09732703353118663
  - accelerations:
    - 0.18592707317164722
    - -0.3071728776362723
    - 0.46177900639090036
    - -0.9827610845235818
    - 0.2671090601943424
    - -0.5787429798645187
    effort: []
    positions:
    - -1.2627938884787844
    - 0.9036064852040453
    - 0.7985926943421422
    - 2.9972280142788654
    - -1.5752693351658986
    - -3.6194544214918456
    time_from_start:
      nsecs: 672678802
      secs: 0
    velocities:
    - 0.0
    - 0.0
    - 0.0
    - 0.0
    - 0.0
    - 0.0
multi_dof_joint_trajectory:
  header:
    frame_id: ''
    seq: 0
    stamp:
      nsecs: 0
      secs: 0
  joint_names: []
  points: []
---
joint_trajectory:
  header:
    frame_id: base
    seq: 0
    stamp:
      nsecs: 0
      secs: 0
  joint_names:
  - joint_1
  - joint_2
  - joint_3
  - joint_4
  - joint_5
  - joint_6
  points:
  - accelerations:
    - -0.041416821473769516
    - 0.0
    - 0.0
    - 0.0
    - 0.0
    - 0.0
    effort: []
    positions:
    - -1.2627938884787844
    - 0.9036064852040453
    - 0.7985926943421422
    - 2.9972280142788654
    - -1.5752693351658986
    - -3.6194544214918456
    time_from_start:
      nsecs: 0
      secs: 0
    velocities:
    - 0.0
    - 0.0
    - 0.0
    - 0.0
    - 0.0
    - 0.0
  - accelerations:
    - 0.041416821473769516
    - -0.2886889083695777
    - 0.4038697979977664
    - -0.9790664146633146
    - 0.27769682359751907
    - 0.03903489897959365
    effort: []
    positions:
    - -1.2667380912619435
    - 0.9310988797273573
    - 0.7601314043490037
    - 3.09046637348174
    - -1.6017149325230366
    - -3.62317178925975
    time_from_start:
      nsecs: 436421595
      secs: 0
    velocities:
    - 0.0
    - 0.0
    - 0.0
    - 0.0
    - 0.0
    - 0.0
multi_dof_joint_trajectory:
  header:
    frame_id: ''
    seq: 0
    stamp:
      nsecs: 0
      secs: 0
  joint_names: []
  points: []
---
joint_trajectory:
  header:
    frame_id: base
    seq: 0
    stamp:
      nsecs: 0
      secs: 0
  joint_names:
  - joint_1
  - joint_2
  - joint_3
  - joint_4
  - joint_5
  - joint_6
  points:
  - accelerations:
    - 0.04075772242471832
    - 0.0
    - 0.0
    - 0.0
    - 0.0
    - 0.0
    effort: []
    positions:
    - -1.2667380912619435
    - 0.9310988797273573
    - 0.7601314043490037
    - 3.09046637348174
    - -1.6017149325230366
    - -3.62317178925975
    time_from_start:
      nsecs: 0
      secs: 0
    velocities:
    - 0.0
    - 0.0
    - 0.0
    - 0.0
    - 0.0
    - 0.0
  - accelerations:
    - 0.0
    - 0.0
    - -5.755194182637499e-16
    - 0.0
    - 1.1670254870348263e-15
    - 2.3540342872038105e-15
    effort: []
    positions:
    - -1.2628988496465616
    - 0.9031539707050148
    - 0.7998026952575894
    - 2.9954354575607938
    - -1.5752618557614078
    - -3.618839948199639
    time_from_start:
      nsecs: 434043010
      secs: 0
    velocities:
    - 0.008845302258293964
    - -0.06438281088973889
    - 0.09139944661395018
    - -0.21894354651594003
    - 0.060945749983799466
    - 0.009980211549608646
  - accelerations:
    - -0.04075772242471832
    - 0.29666558117972464
    - -0.4211538697132935
    - 1.0088564567946412
    - -0.2808281603352572
    - -0.04598720091193285
    effort: []
    positions:
    - -1.2590596080311798
    - 0.8752090616826723
    - 0.839473986166175
    - 2.9004045416398476
    - -1.5488087789997786
    - -3.6145081071395277
    time_from_start:
      nsecs: 868086020
      secs: 0
    velocities:
    - 0.0
    - 0.0
    - 0.0
    - 0.0
    - 0.0
    - 0.0
multi_dof_joint_trajectory:
  header:
    frame_id: ''
    seq: 0
    stamp:
      nsecs: 0
      secs: 0
  joint_names: []
  points: []
---
joint_trajectory:
  header:
    frame_id: base
    seq: 0
    stamp:
      nsecs: 0
      secs: 0
  joint_names:
  - joint_1
  - joint_2
  - joint_3
  - joint_4
  - joint_5
  - joint_6
  points:
  - accelerations:
    - -0.23671574658342556
    - 0.0
    - 0.0
    - 0.0
    - 0.0
    - 0.0
    effort: []
    positions:
    - -1.2590596080311798
    - 0.8752090616826723
    - 0.839473986166175
    - 2.9004045416398476
    - -1.5488087789997786
    - -3.6145081071395277
    time_from_start:
      nsecs: 0
      secs: 0
    velocities:
    - 0.0
    - 0.0
    - 0.0
    - 0.0
    - 0.0
    - 0.0
  - accelerations:
    - 2.3480892563844773e-15
    - -1.1740446281922387e-15
    - -1.1740446281922387e-15
    - 0.0
    - 0.0
    - 0.0
    effort: []
    positions:
    - -1.2702389212169036
    - 0.8875012827520892
    - 0.8228350822198187
    - 2.946817228239045
    - -1.5621170223920984
    - -3.6255907969623316
    time_from_start:
      nsecs: 307332851
      secs: 0
    velocities:
    - -0.03637526265917885
    - 0.039996443666658166
    - -0.05413968562777815
    - 0.15101765535291695
    - -0.043302378320173335
    - -0.03606086944495938
  - accelerations:
    - 0.23671574658342087
    - -0.26028095279872004
    - 0.3523195481294343
    - -0.9827628564249887
    - 0.28179466108435425
    - 0.23466980054800826
    effort: []
    positions:
    - -1.2814182344026273
    - 0.8997935038215059
    - 0.8061961782734623
    - 2.993229914838242
    - -1.575425265784418
    - -3.6366734867851354
    time_from_start:
      nsecs: 614665702
      secs: 0
    velocities:
    - 0.0
    - 0.0
    - 0.0
    - 0.0
    - 0.0
    - 0.0
multi_dof_joint_trajectory:
  header:
    frame_id: ''
    seq: 0
    stamp:
      nsecs: 0
      secs: 0
  joint_names: []
  points: []
---
joint_trajectory:
  header:
    frame_id: base
    seq: 0
    stamp:
      nsecs: 0
      secs: 0
  joint_names:
  - joint_1
  - joint_2
  - joint_3
  - joint_4
  - joint_5
  - joint_6
  points:
  - accelerations:
    - -0.03817659705861612
    - 0.0
    - 0.0
    - 0.0
    - 0.0
    - 0.0
    effort: []
    positions:
    - -1.2814182344026273
    - 0.8997935038215059
    - 0.8061961782734623
    - 2.993229914838242
    - -1.575425265784418
    - -3.6366734867851354
    time_from_start:
      nsecs: 0
      secs: 0
    velocities:
    - 0.0
    - 0.0
    - 0.0
    - 0.0
    - 0.0
    - 0.0
  - accelerations:
    - 0.03817659705861612
    - -0.2841957707781761
    - 0.3924845228317547
    - -0.9735297136690779
    - 0.2574532705051334
    - 0.056059936802058286
    effort: []
    positions:
    - -1.2851000010076767
    - 0.9272014599717316
    - 0.7683448106688003
    - 3.087117517845573
    - -1.6002541642913017
    - -3.642079929975504
    time_from_start:
      nsecs: 439181986
      secs: 0
    velocities:
    - 0.0
    - 0.0
    - 0.0
    - 0.0
    - 0.0
    - 0.0
multi_dof_joint_trajectory:
  header:
    frame_id: ''
    seq: 0
    stamp:
      nsecs: 0
      secs: 0
  joint_names: []
  points: []
---
joint_trajectory:
  header:
    frame_id: base
    seq: 0
    stamp:
      nsecs: 0
      secs: 0
  joint_names:
  - joint_1
  - joint_2
  - joint_3
  - joint_4
  - joint_5
  - joint_6
  points:
  - accelerations:
    - 0.037000760392980385
    - 0.0
    - 0.0
    - 0.0
    - 0.0
    - 0.0
    effort: []
    positions:
    - -1.2851000010076767
    - 0.9272014599717316
    - 0.7683448106688003
    - 3.087117517845573
    - -1.6002541642913017
    - -3.642079929975504
    time_from_start:
      nsecs: 0
      secs: 0
    velocities:
    - 0.0
    - 0.0
    - 0.0
    - 0.0
    - 0.0
    - 0.0
  - accelerations:
    - -1.0486546649300404e-15
    - -6.260624865253973e-16
    - 1.408640594682144e-15
    - 1.878187459576192e-16
    - 1.6747171514554378e-15
    - 9.782226351959333e-17
    effort: []
    positions:
    - -1.2814638177152027
    - 0.8994892557139212
    - 0.8073592532317029
    - 2.992252996726691
    - -1.5754096963648072
    - -3.6376404913997122
    time_from_start:
      nsecs: 443335549
      secs: 0
    velocities:
    - 0.008201876210653986
    - -0.06250841901104402
    - 0.0880020622147693
    - -0.2139790534240827
    - 0.056039873147877686
    - 0.010013721178140242
  - accelerations:
    - -0.03700076039297844
    - 0.28199145841378054
    - -0.39699980034655175
    - 0.9653142136645022
    - -0.2528101943436022
    - -0.04517445623882791
    effort: []
    positions:
    - -1.2778276344227288
    - 0.8717770514561108
    - 0.8463736957946055
    - 2.8973884756078094
    - -1.5505652284383125
    - -3.6332010528239205
    time_from_start:
      nsecs: 886671098
      secs: 0
    velocities:
    - 0.0
    - 0.0
    - 0.0
    - 0.0
    - 0.0
    - 0.0
multi_dof_joint_trajectory:
  header:
    frame_id: ''
    seq: 0
    stamp:
      nsecs: 0
      secs: 0
  joint_names: []
  points: []
---
joint_trajectory:
  header:
    frame_id: base
    seq: 0
    stamp:
      nsecs: 0
      secs: 0
  joint_names:
  - joint_1
  - joint_2
  - joint_3
  - joint_4
  - joint_5
  - joint_6
  points:
  - accelerations:
    - -0.2391309073517912
    - 0.0
    - 0.0
    - 0.0
    - 0.0
    - 0.0
    effort: []
    positions:
    - -1.2778276344227288
    - 0.8717770514561108
    - 0.8463736957946055
    - 2.8973884756078094
    - -1.5505652284383125
    - -3.6332010528239205
    time_from_start:
      nsecs: 0
      secs: 0
    velocities:
    - 0.0
    - 0.0
    - 0.0
    - 0.0
    - 0.0
    - 0.0
  - accelerations:
    - -2.3780924453012122e-15
    - -1.1777219729110766e-15
    - 1.1777219729110766e-15
    - 0.0
    - -2.355443945822153e-15
    - 0.0
    effort: []
    positions:
    - -1.2890505925352818
    - 0.8841502402075583
    - 0.8294465773507387
    - 2.9435754589284464
    - -1.5633352957166045
    - -3.644553658123286
    time_from_start:
      nsecs: 306373228
      secs: 0
    velocities:
    - -0.03663165404828164
    - 0.04038599852833309
    - -0.05524999208332261
    - 0.15075397925996975
    - -0.041681407167371516
    - -0.037054821527658495
  - accelerations:
    - 0.23913090735179596
    - -0.2636392137701321
    - 0.3606711485277326
    - -0.9841197943127306
    - 0.2720956226135998
    - 0.24189333853144446
    effort: []
    positions:
    - -1.300273550647835
    - 0.8965234289590056
    - 0.8125194589068719
    - 2.9897624422490834
    - -1.5761053629948967
    - -3.655906263422651
    time_from_start:
      nsecs: 612746457
      secs: 0
    velocities:
    - 0.0
    - 0.0
    - 0.0
    - 0.0
    - 0.0
    - 0.0
multi_dof_joint_trajectory:
  header:
    frame_id: ''
    seq: 0
    stamp:
      nsecs: 0
      secs: 0
  joint_names: []
  points: []
---
joint_trajectory:
  header:
    frame_id: base
    seq: 0
    stamp:
      nsecs: 0
      secs: 0
  joint_names:
  - joint_1
  - joint_2
  - joint_3
  - joint_4
  - joint_5
  - joint_6
  points:
  - accelerations:
    - -0.03577791411628775
    - 0.0
    - 0.0
    - 0.0
    - 0.0
    - 0.0
    effort: []
    positions:
    - -1.300273550647835
    - 0.8965234289590056
    - 0.8125194589068719
    - 2.9897624422490834
    - -1.5761053629948967
    - -3.655906263422651
    time_from_start:
      nsecs: 0
      secs: 0
    velocities:
    - 0.0
    - 0.0
    - 0.0
    - 0.0
    - 0.0
    - 0.0
  - accelerations:
    - 0.03577791411628775
    - -0.28507880071475133
    - 0.3900617980034695
    - -0.9696944287427826
    - 0.23801073962883126
    - 0.041561860267860226
    effort: []
    positions:
    - -1.3037543860161747
    - 0.9242587622449683
    - 0.7745703236410301
    - 3.0841040702455933
    - -1.5992614418499125
    - -3.6599498192522097
    time_from_start:
      nsecs: 441112364
      secs: 0
    velocities:
    - 0.0
    - 0.0
    - 0.0
    - 0.0
    - 0.0
    - 0.0
multi_dof_joint_trajectory:
  header:
    frame_id: ''
    seq: 0
    stamp:
      nsecs: 0
      secs: 0
  joint_names: []
  points: []
---
joint_trajectory:
  header:
    frame_id: base
    seq: 0
    stamp:
      nsecs: 0
      secs: 0
  joint_names:
  - joint_1
  - joint_2
  - joint_3
  - joint_4
  - joint_5
  - joint_6
  points:
  - accelerations:
    - 0.03309098381331083
    - 0.0
    - 0.0
    - 0.0
    - 0.0
    - 0.0
    effort: []
    positions:
    - -1.3037543860161747
    - 0.9242587622449683
    - 0.7745703236410301
    - 3.0841040702455933
    - -1.5992614418499125
    - -3.6599498192522097
    time_from_start:
      nsecs: 0
      secs: 0
    velocities:
    - 0.0
    - 0.0
    - 0.0
    - 0.0
    - 0.0
    - 0.0
  - accelerations:
    - 1.0625953483617528e-15
    - 1.1606207495021359e-15
    - -2.823131552843033e-16
    - -1.8820877018953555e-16
    - 6.430466314809131e-16
    - -2.352609627369194e-15
    effort: []
    positions:
    - -1.3005158930651266
    - 0.8966903017229109
    - 0.8130771089469611
    - 2.9894556326275943
    - -1.576663267276421
    - -3.6562446771100037
    time_from_start:
      nsecs: 442416827
      secs: 0
    velocities:
    - 0.007320004023996822
    - -0.06231331826476345
    - 0.0870373434962603
    - -0.21393498602630184
    - 0.05107892199036668
    - 0.008374776724972919
  - accelerations:
    - -0.03309098381331282
    - 0.2816950645509533
    - -0.3934630794391013
    - 0.9671195721326978
    - -0.23090858628541328
    - -0.037859214303388476
    effort: []
    positions:
    - -1.2972774001140783
    - 0.8691218412008536
    - 0.8515838942528922
    - 2.894807195009595
    - -1.5540650927029291
    - -3.652539534967798
    time_from_start:
      nsecs: 884833653
      secs: 0
    velocities:
    - 0.0
    - 0.0
    - 0.0
    - 0.0
    - 0.0
    - 0.0
multi_dof_joint_trajectory:
  header:
    frame_id: ''
    seq: 0
    stamp:
      nsecs: 0
      secs: 0
  joint_names: []
  points: []
---
joint_trajectory:
  header:
    frame_id: base
    seq: 0
    stamp:
      nsecs: 0
      secs: 0
  joint_names:
  - joint_1
  - joint_2
  - joint_3
  - joint_4
  - joint_5
  - joint_6
  points:
  - accelerations:
    - -0.2247946805094641
    - 0.0
    - 0.0
    - 0.0
    - 0.0
    - 0.0
    effort: []
    positions:
    - -1.2972774001140783
    - 0.8691218412008536
    - 0.8515838942528922
    - 2.894807195009595
    - -1.5540650927029291
    - -3.652539534967798
    time_from_start:
      nsecs: 0
      secs: 0
    velocities:
    - 0.0
    - 0.0
    - 0.0
    - 0.0
    - 0.0
    - 0.0
  - accelerations:
    - 0.2247946805094641
    - -0.2523299288440545
    - 0.3297384893939688
    - -0.9998724948594664
    - 0.24069232964948364
    - -0.21172886569772104
    effort: []
    positions:
    - -1.317705314723228
    - 0.8920519845124172
    - 0.8216193519895959
    - 2.9856692647824903
    - -1.5759376848212732
    - -3.6332989587274582
    time_from_start:
      nsecs: 426318324
      secs: 0
    velocities:
    - 0.0
    - 0.0
    - 0.0
    - 0.0
    - 0.0
    - 0.0
multi_dof_joint_trajectory:
  header:
    frame_id: ''
    seq: 0
    stamp:
      nsecs: 0
      secs: 0
  joint_names: []
  points: []
---
joint_trajectory:
  header:
    frame_id: base
    seq: 0
    stamp:
      nsecs: 0
      secs: 0
  joint_names:
  - joint_1
  - joint_2
  - joint_3
  - joint_4
  - joint_5
  - joint_6
  points:
  - accelerations:
    - -0.032379810276007316
    - 0.0
    - 0.0
    - 0.0
    - 0.0
    - 0.0
    effort: []
    positions:
    - -1.317705314723228
    - 0.8920519845124172
    - 0.8216193519895959
    - 2.9856692647824903
    - -1.5759376848212732
    - -3.6332989587274582
    time_from_start:
      nsecs: 0
      secs: 0
    velocities:
    - 0.0
    - 0.0
    - 0.0
    - 0.0
    - 0.0
    - 0.0
  - accelerations:
    - 0.032379810276007316
    - -0.27937947587626394
    - 0.3817448274386661
    - -0.9671220536143332
    - 0.22042629154273638
    - 0.046119074942809764
    effort: []
    positions:
    - -1.3208741896777492
    - 0.9193936710870149
    - 0.7842596018126551
    - 3.0803174059402028
    - -1.5975098728184747
    - -3.637812437350903
    time_from_start:
      nsecs: 442415566
      secs: 0
    velocities:
    - 0.0
    - 0.0
    - 0.0
    - 0.0
    - 0.0
    - 0.0
multi_dof_joint_trajectory:
  header:
    frame_id: ''
    seq: 0
    stamp:
      nsecs: 0
      secs: 0
  joint_names: []
  points: []
---
joint_trajectory:
  header:
    frame_id: base
    seq: 0
    stamp:
      nsecs: 0
      secs: 0
  joint_names:
  - joint_1
  - joint_2
  - joint_3
  - joint_4
  - joint_5
  - joint_6
  points:
  - accelerations:
    - 0.032945103001825495
    - 0.0
    - 0.0
    - 0.0
    - 0.0
    - 0.0
    effort: []
    positions:
    - -1.3208741896777492
    - 0.9193936710870149
    - 0.7842596018126551
    - 3.0803174059402028
    - -1.5975098728184747
    - -3.637812437350903
    time_from_start:
      nsecs: 0
      secs: 0
    velocities:
    - 0.0
    - 0.0
    - 0.0
    - 0.0
    - 0.0
    - 0.0
  - accelerations:
    - 0.0
    - 5.715071671452319e-16
    - 0.0
    - 0.0
    - 1.174764732465199e-15
    - 2.3237322664134253e-15
    effort: []
    positions:
    - -1.3177271442823386
    - 0.8918416677799661
    - 0.822707454750026
    - 2.984569791496234
    - -1.5759666633873097
    - -3.634604214280209
    time_from_start:
      nsecs: 437090197
      secs: 0
    velocities:
    - 0.007199990788300402
    - -0.0630350519567557
    - 0.08796320109735373
    - -0.21905687887555236
    - 0.049287789010294694
    - 0.007339956579430373
  - accelerations:
    - -0.032945103001825495
    - 0.2884304078298619
    - -0.4024945039140372
    - 1.0023417598728708
    - -0.22552685599473035
    - -0.033585546516422565
    effort: []
    positions:
    - -1.314580098886928
    - 0.8642896644729174
    - 0.861155307687397
    - 2.888822177052265
    - -1.5544234539561446
    - -3.631395991209515
    time_from_start:
      nsecs: 874180395
      secs: 0
    velocities:
    - 0.0
    - 0.0
    - 0.0
    - 0.0
    - 0.0
    - 0.0
multi_dof_joint_trajectory:
  header:
    frame_id: ''
    seq: 0
    stamp:
      nsecs: 0
      secs: 0
  joint_names: []
  points: []
---
joint_trajectory:
  header:
    frame_id: base
    seq: 0
    stamp:
      nsecs: 0
      secs: 0
  joint_names:
  - joint_1
  - joint_2
  - joint_3
  - joint_4
  - joint_5
  - joint_6
  points:
  - accelerations:
    - 0.020196269430526295
    - 0.0
    - 0.0
    - 0.0
    - 0.0
    - 0.0
    effort: []
    positions:
    - -1.314580098886928
    - 0.8642896644729174
    - 0.861155307687397
    - 2.888822177052265
    - -1.5544234539561446
    - -3.631395991209515
    time_from_start:
      nsecs: 0
      secs: 0
    velocities:
    - 0.0
    - 0.0
    - 0.0
    - 0.0
    - 0.0
    - 0.0
  - accelerations:
    - 0.0
    - 1.6713077748810233e-16
    - 0.0
    - -6.706521644427036e-16
    - 3.3479381859877824e-16
    - 0.0
    effort: []
    positions:
    - -1.3078761897665994
    - 0.8615936762013502
    - 0.8682035724449343
    - 2.8965062694700237
    - -1.5572344773058846
    - -3.439758358913243
    time_from_start:
      nsecs: 814785852
      secs: 0
    velocities:
    - 0.00822781729354514
    - -0.0033088304936490297
    - 0.00865045059839752
    - 0.009430812283584687
    - -0.003450014926278616
    - 0.23519999999999996
  - accelerations:
    - 3.10841955582967e-16
    - -1.575500322817778e-16
    - -2.5548653883531536e-17
    - 6.42974456068877e-16
    - -3.2468080976987994e-16
    - 0.0
    effort: []
    positions:
    - -1.3011722806462707
    - 0.858897687929783
    - 0.8752518372024716
    - 2.904190361887782
    - -1.5600455006556244
    - -3.248120726616971
    time_from_start:
      nsecs: 629571703
      secs: 1
    velocities:
    - 0.008227817293545266
    - -0.0033088304936490258
    - 0.008650450598397509
    - 0.009430812283584675
    - -0.003450014926278612
    - 0.23519999999999996
  - accelerations:
    - -2.874223561897301e-16
    - -1.86292267900751e-17
    - 4.8968253276768836e-17
    - 5.322636225735743e-17
    - -1.9693754035222248e-17
    - 0.0
    effort: []
    positions:
    - -1.2944683715259417
    - 0.8562016996582158
    - 0.8823001019600089
    - 2.9118744543055404
    - -1.5628565240053645
    - -3.056483094320699
    time_from_start:
      nsecs: 444357555
      secs: 2
    velocities:
    - 0.008227817293545277
    - -0.0033088304936490977
    - 0.00865045059839752
    - 0.009430812283584958
    - -0.003450014926278752
    - 0.23519999999999996
  - accelerations:
    - -4.683919878647454e-17
    - 1.8576000427817742e-16
    - -4.8968253276768836e-17
    - -7.217494722097668e-16
    - 3.539553090114269e-16
    - 0.0
    effort: []
    positions:
    - -1.287764462405613
    - 0.8535057113866485
    - 0.8893483667175461
    - 2.919558546723299
    - -1.5656675473551045
    - -2.8648454620244275
    time_from_start:
      nsecs: 259143406
      secs: 3
    velocities:
    - 0.00822781729354514
    - -0.0033088304936490292
    - 0.00865045059839752
    - 0.009430812283584687
    - -0.003450014926278616
    - 0.23519999999999996
  - accelerations:
    - 2.341959939323724e-17
    - -1.7671152269442644e-16
    - 2.5548653883531536e-17
    - 6.962008183262343e-16
    - -3.4437456380510216e-16
    - 0.0
    effort: []
    positions:
    - -1.2810605532852843
    - 0.8508097231150814
    - 0.8963966314750834
    - 2.927242639141057
    - -1.5684785707048443
    - -2.673207829728155
    time_from_start:
      nsecs: 73929258
      secs: 4
    velocities:
    - 0.008227817293545131
    - -0.0033088304936490258
    - 0.008650450598397509
    - 0.009430812283584677
    - -0.0034500149262786124
    - 0.23519999999999996
  - accelerations:
    - -0.020196269430526295
    - 0.008121963549446417
    - -0.021233678963405535
    - -0.023149180278641275
    - 0.008468519475405233
    - -0.5773296125311832
    effort: []
    positions:
    - -1.2743566441649556
    - 0.8481137348435142
    - 0.9034448962326207
    - 2.9349267315588157
    - -1.5712895940545843
    - -2.4815701974318833
    time_from_start:
      nsecs: 888715110
      secs: 4
    velocities:
    - 0.0
    - 0.0
    - 0.0
    - 0.0
    - 0.0
    - 0.0
multi_dof_joint_trajectory:
  header:
    frame_id: ''
    seq: 0
    stamp:
      nsecs: 0
      secs: 0
  joint_names: []
  points: []
---
joint_trajectory:
  header:
    frame_id: base
    seq: 0
    stamp:
      nsecs: 0
      secs: 0
  joint_names:
  - joint_1
  - joint_2
  - joint_3
  - joint_4
  - joint_5
  - joint_6
  points:
  - accelerations:
    - -0.04013282301541034
    - 0.0
    - 0.0
    - 0.0
    - 0.0
    - 0.0
    effort: []
    positions:
    - -1.2743566441649556
    - 0.8481137348435142
    - 0.9034448962326207
    - 2.9349267315588157
    - -1.5712895940545843
    - -2.4815701974318833
    time_from_start:
      nsecs: 0
      secs: 0
    velocities:
    - 0.0
    - 0.0
    - 0.0
    - 0.0
    - 0.0
    - 0.0
  - accelerations:
    - 0.04013282301541034
    - -0.25865486494906775
    - 0.37608167749107396
    - -0.966367951927195
    - 0.26660914017453974
    - 0.05370357488362916
    effort: []
    positions:
    - -1.2782910829129646
    - 0.8734710769528858
    - 0.8665755655162416
    - 3.029665033756905
    - -1.5974267369930033
    - -2.4868350507378074
    time_from_start:
      nsecs: 442798904
      secs: 0
    velocities:
    - 0.0
    - 0.0
    - 0.0
    - 0.0
    - 0.0
    - 0.0
multi_dof_joint_trajectory:
  header:
    frame_id: ''
    seq: 0
    stamp:
      nsecs: 0
      secs: 0
  joint_names: []
  points: []
---
joint_trajectory:
  header:
    frame_id: base
    seq: 0
    stamp:
      nsecs: 0
      secs: 0
  joint_names:
  - joint_1
  - joint_2
  - joint_3
  - joint_4
  - joint_5
  - joint_6
  points:
  - accelerations:
    - 0.03970214800487554
    - 0.0
    - 0.0
    - 0.0
    - 0.0
    - 0.0
    effort: []
    positions:
    - -1.2782910829129646
    - 0.8734710769528858
    - 0.8665755655162416
    - 3.029665033756905
    - -1.5974267369930033
    - -2.4868350507378074
    time_from_start:
      nsecs: 0
      secs: 0
    velocities:
    - 0.0
    - 0.0
    - 0.0
    - 0.0
    - 0.0
    - 0.0
  - accelerations:
    - 1.1704567276287302e-15
    - 5.732849278181535e-16
    - 6.051340904747176e-16
    - 0.0
    - -1.1624944369645891e-15
    - 0.0
    effort: []
    positions:
    - -1.274522062788475
    - 0.8481389992112915
    - 0.9042777676932199
    - 2.9342362140586626
    - -1.5720773915010158
    - -2.4829964725560947
    time_from_start:
      nsecs: 435734778
      secs: 0
    velocities:
    - 0.00864980331614098
    - -0.05813646062281314
    - 0.08652557498891122
    - -0.21900666322206092
    - 0.05817608966157649
    - 0.008809437251264644
  - accelerations:
    - -0.039702148004877875
    - 0.26684333501774493
    - -0.39714789560665037
    - 1.0052292103649414
    - -0.26702523024758584
    - -0.0404348594767149
    effort: []
    positions:
    - -1.2707530426639853
    - 0.8228069214696974
    - 0.9419799698701983
    - 2.8388073943604204
    - -1.5467280460090285
    - -2.479157894374382
    time_from_start:
      nsecs: 871469555
      secs: 0
    velocities:
    - 0.0
    - 0.0
    - 0.0
    - 0.0
    - 0.0
    - 0.0
multi_dof_joint_trajectory:
  header:
    frame_id: ''
    seq: 0
    stamp:
      nsecs: 0
      secs: 0
  joint_names: []
  points: []
---
joint_trajectory:
  header:
    frame_id: base
    seq: 0
    stamp:
      nsecs: 0
      secs: 0
  joint_names:
  - joint_1
  - joint_2
  - joint_3
  - joint_4
  - joint_5
  - joint_6
  points:
  - accelerations:
    - -0.00557523001338019
    - 0.0
    - 0.0
    - 0.0
    - 0.0
    - 0.0
    effort: []
    positions:
    - -1.2707530426639853
    - 0.8228069214696974
    - 0.9419799698701983
    - 2.8388073943604204
    - -1.5467280460090285
    - -2.479157894374382
    time_from_start:
      nsecs: 0
      secs: 0
    velocities:
    - 0.0
    - 0.0
    - 0.0
    - 0.0
    - 0.0
    - 0.0
  - accelerations:
    - -6.296806576497098e-05
    - 0.0011212902199478731
    - -0.0018342522140074196
    - 0.003279665711074431
    - -0.0008092278641242233
    - 0.011356611283448517
    effort: []
    positions:
    - -1.271336746950248
    - 0.8332011093739422
    - 0.9249767339220145
    - 2.8692093911473218
    - -1.554229463864478
    - -2.373883854223438
    time_from_start:
      nsecs: 457593708
      secs: 0
    velocities:
    - -0.0012898445629245595
    - 0.02296862824179072
    - -0.037573017632459224
    - 0.06718102159008259
    - -0.01657630972187716
    - 0.23263003459374626
  - accelerations:
    - 1.1205517769521309e-15
    - 3.3330722980677305e-16
    - 3.5656122258398977e-16
    - 1.5812715088507374e-15
    - -9.534137038658858e-16
    - 0.0
    effort: []
    positions:
    - -1.2719204512365105
    - 0.843595297278187
    - 0.9079734979738306
    - 2.8996113879342227
    - -1.5617308817199276
    - -2.2686098140724944
    time_from_start:
      nsecs: 905187416
      secs: 0
    velocities:
    - -0.0013040940381133146
    - 0.023222372691055912
    - -0.03798810313804599
    - 0.06792319962287535
    - -0.016759435441748308
    - 0.2352
  - accelerations:
    - 6.296806576386268e-05
    - -0.0011212902199482003
    - 0.0018342522140070633
    - -0.0032796657110759878
    - 0.0008092278641251645
    - -0.011356611283448493
    effort: []
    positions:
    - -1.272504155522773
    - 0.853989485182432
    - 0.8909702620256468
    - 2.930013384721124
    - -1.5692322995753774
    - -2.1633357739215504
    time_from_start:
      nsecs: 352781124
      secs: 1
    velocities:
    - -0.0012898445629243088
    - 0.022968628241790794
    - -0.03757301763245915
    - 0.06718102159008293
    - -0.016576309721877375
    - 0.23263003459374626
  - accelerations:
    - 0.00557523001338019
    - -0.09927970332289814
    - 0.16240578254079213
    - -0.2903835536968344
    - 0.07164951663861892
    - -1.005521121041145
    effort: []
    positions:
    - -1.2730878598090356
    - 0.8643836730866769
    - 0.873967026077463
    - 2.9604153815080254
    - -1.576733717430827
    - -2.0580617337706064
    time_from_start:
      nsecs: 810374832
      secs: 1
    velocities:
    - 0.0
    - 0.0
    - 0.0
    - 0.0
    - 0.0
    - 0.0
multi_dof_joint_trajectory:
  header:
    frame_id: ''
    seq: 0
    stamp:
      nsecs: 0
      secs: 0
  joint_names: []
  points: []
---
joint_trajectory:
  header:
    frame_id: base
    seq: 0
    stamp:
      nsecs: 0
      secs: 0
  joint_names:
  - joint_1
  - joint_2
  - joint_3
  - joint_4
  - joint_5
  - joint_6
  points:
  - accelerations:
    - -0.038653084744544944
    - 0.0
    - 0.0
    - 0.0
    - 0.0
    - 0.0
    effort: []
    positions:
    - -1.2730878598090356
    - 0.8643836730866769
    - 0.873967026077463
    - 2.9604153815080254
    - -1.576733717430827
    - -2.0580617337706064
    time_from_start:
      nsecs: 0
      secs: 0
    velocities:
    - 0.0
    - 0.0
    - 0.0
    - 0.0
    - 0.0
    - 0.0
  - accelerations:
    - 0.038653084744544944
    - -0.27642818614555686
    - 0.39448988779502414
    - -1.0094586554935738
    - 0.2553207248671185
    - 0.05198272458920715
    effort: []
    positions:
    - -1.2767241605335715
    - 0.890388738923113
    - 0.8368552696861808
    - 3.055380512095135
    - -1.60075309241627
    - -2.0629520244249315
    time_from_start:
      nsecs: 433763310
      secs: 0
    velocities:
    - 0.0
    - 0.0
    - 0.0
    - 0.0
    - 0.0
    - 0.0
multi_dof_joint_trajectory:
  header:
    frame_id: ''
    seq: 0
    stamp:
      nsecs: 0
      secs: 0
  joint_names: []
  points: []
---
joint_trajectory:
  header:
    frame_id: base
    seq: 0
    stamp:
      nsecs: 0
      secs: 0
  joint_names:
  - joint_1
  - joint_2
  - joint_3
  - joint_4
  - joint_5
  - joint_6
  points:
  - accelerations:
    - 0.039460476958340665
    - 0.0
    - 0.0
    - 0.0
    - 0.0
    - 0.0
    effort: []
    positions:
    - -1.2767241605335715
    - 0.890388738923113
    - 0.8368552696861808
    - 3.055380512095135
    - -1.60075309241627
    - -2.0629520244249315
    time_from_start:
      nsecs: 0
      secs: 0
    velocities:
    - 0.0
    - 0.0
    - 0.0
    - 0.0
    - 0.0
    - 0.0
  - accelerations:
    - -1.0944356429364618e-15
    - -5.911550188123955e-16
    - 1.4379446403544754e-15
    - 1.2781730136484226e-16
    - 5.751778561417902e-16
    - 2.440511597934957e-15
    effort: []
    positions:
    - -1.2730026991657208
    - 0.8644749957317146
    - 0.8746319548368771
    - 2.960288973145583
    - -1.5755913672315733
    - -2.059296008065
    time_from_start:
      nsecs: 434300761
      secs: 0
    velocities:
    - 0.008568857583056751
    - -0.05966773611283012
    - 0.08698277451238326
    - -0.21895319447667141
    - 0.05793617569546574
    - 0.008418167062063282
  - accelerations:
    - -0.039460476958338646
    - 0.27477610675806236
    - -0.4005646886004081
    - 1.0083021455141798
    - -0.266802091635383
    - -0.03876653149666702
    effort: []
    positions:
    - -1.2692812377978704
    - 0.8385612525403162
    - 0.9124086399875734
    - 2.8651974341960313
    - -1.5504296420468766
    - -2.055639991705068
    time_from_start:
      nsecs: 868601522
      secs: 0
    velocities:
    - 0.0
    - 0.0
    - 0.0
    - 0.0
    - 0.0
    - 0.0
multi_dof_joint_trajectory:
  header:
    frame_id: ''
    seq: 0
    stamp:
      nsecs: 0
      secs: 0
  joint_names: []
  points: []
---
joint_trajectory:
  header:
    frame_id: base
    seq: 0
    stamp:
      nsecs: 0
      secs: 0
  joint_names:
  - joint_1
  - joint_2
  - joint_3
  - joint_4
  - joint_5
  - joint_6
  points:
  - accelerations:
    - -0.24467706326916588
    - 0.0
    - 0.0
    - 0.0
    - 0.0
    - 0.0
    effort: []
    positions:
    - -1.2692812377978704
    - 0.8385612525403162
    - 0.9124086399875734
    - 2.8651974341960313
    - -1.5504296420468766
    - -2.055639991705068
    time_from_start:
      nsecs: 0
      secs: 0
    velocities:
    - 0.0
    - 0.0
    - 0.0
    - 0.0
    - 0.0
    - 0.0
  - accelerations:
    - 0.24467706326916588
    - -0.24285048681159918
    - 0.343221021307633
    - -0.9882193154337682
    - 0.2710818422984916
    - 0.2359140557645886
    effort: []
    positions:
    - -1.2921046472781053
    - 0.8612142794686233
    - 0.8803930770783888
    - 2.957378261409943
    - -1.5757160820865328
    - -2.077645990244191
    time_from_start:
      nsecs: 431925286
      secs: 0
    velocities:
    - 0.0
    - 0.0
    - 0.0
    - 0.0
    - 0.0
    - 0.0
multi_dof_joint_trajectory:
  header:
    frame_id: ''
    seq: 0
    stamp:
      nsecs: 0
      secs: 0
  joint_names: []
  points: []
---
joint_trajectory:
  header:
    frame_id: base
    seq: 0
    stamp:
      nsecs: 0
      secs: 0
  joint_names:
  - joint_1
  - joint_2
  - joint_3
  - joint_4
  - joint_5
  - joint_6
  points:
  - accelerations:
    - -0.03984177670220088
    - 0.0
    - 0.0
    - 0.0
    - 0.0
    - 0.0
    effort: []
    positions:
    - -1.2921046472781053
    - 0.8612142794686233
    - 0.8803930770783888
    - 2.957378261409943
    - -1.5757160820865328
    - -2.077645990244191
    time_from_start:
      nsecs: 0
      secs: 0
    velocities:
    - 0.0
    - 0.0
    - 0.0
    - 0.0
    - 0.0
    - 0.0
  - accelerations:
    - 0.03984177670220088
    - -0.27555282999687836
    - 0.39088759165013
    - -1.0019250840732652
    - 0.26755253510647653
    - 0.042939897873062086
    effort: []
    positions:
    - -1.2959139080893771
    - 0.8875598062905781
    - 0.843020426867159
    - 3.053172030526161
    - -1.6012967030150478
    - -2.0817514615295325
    time_from_start:
      nsecs: 437286433
      secs: 0
    velocities:
    - 0.0
    - 0.0
    - 0.0
    - 0.0
    - 0.0
    - 0.0
multi_dof_joint_trajectory:
  header:
    frame_id: ''
    seq: 0
    stamp:
      nsecs: 0
      secs: 0
  joint_names: []
  points: []
---
joint_trajectory:
  header:
    frame_id: base
    seq: 0
    stamp:
      nsecs: 0
      secs: 0
  joint_names:
  - joint_1
  - joint_2
  - joint_3
  - joint_4
  - joint_5
  - joint_6
  points:
  - accelerations:
    - 0.0392614822338913
    - 0.0
    - 0.0
    - 0.0
    - 0.0
    - 0.0
    effort: []
    positions:
    - -1.2959139080893771
    - 0.8875598062905781
    - 0.843020426867159
    - 3.053172030526161
    - -1.6012967030150478
    - -2.0817514615295325
    time_from_start:
      nsecs: 0
      secs: 0
    velocities:
    - 0.0
    - 0.0
    - 0.0
    - 0.0
    - 0.0
    - 0.0
  - accelerations:
    - -1.1772098853107641e-15
    - 0.0
    - 0.0
    - 0.0
    - -1.1812004272948684e-15
    - 0.0
    effort: []
    positions:
    - -1.2922042537993161
    - 0.8616415753667602
    - 0.8805224568436588
    - 2.9579845349872147
    - -1.5765918056448682
    - -2.0774644684963777
    time_from_start:
      nsecs: 434708740
      secs: 0
    velocities:
    - 0.008533654727111331
    - -0.05962206085725902
    - 0.08626932602390228
    - -0.21896844227349563
    - 0.056830919471575016
    - 0.009861759479985063
  - accelerations:
    - -0.03926148223388895
    - 0.2743080846308831
    - -0.3969063337255086
    - 1.0074259951941555
    - -0.2614666525094065
    - -0.045371802234772995
    effort: []
    positions:
    - -1.2884945995092554
    - 0.8357233444429424
    - 0.9180244868201587
    - 2.8627970394482682
    - -1.551886908274689
    - -2.073177475463223
    time_from_start:
      nsecs: 869417479
      secs: 0
    velocities:
    - 0.0
    - 0.0
    - 0.0
    - 0.0
    - 0.0
    - 0.0
multi_dof_joint_trajectory:
  header:
    frame_id: ''
    seq: 0
    stamp:
      nsecs: 0
      secs: 0
  joint_names: []
  points: []
---
joint_trajectory:
  header:
    frame_id: base
    seq: 0
    stamp:
      nsecs: 0
      secs: 0
  joint_names:
  - joint_1
  - joint_2
  - joint_3
  - joint_4
  - joint_5
  - joint_6
  points:
  - accelerations:
    - 0.015619378003331413
    - 0.0
    - 0.0
    - 0.0
    - 0.0
    - 0.0
    effort: []
    positions:
    - -1.2884945995092554
    - 0.8357233444429424
    - 0.9180244868201587
    - 2.8627970394482682
    - -1.551886908274689
    - -2.073177475463223
    time_from_start:
      nsecs: 0
      secs: 0
    velocities:
    - 0.0
    - 0.0
    - 0.0
    - 0.0
    - 0.0
    - 0.0
  - accelerations:
    - -4.635406443792985e-16
    - 0.0
    - -2.305175096372728e-16
    - 0.0
    - 0.0
    - 0.0
    effort: []
    positions:
    - -1.2847512354366066
    - 0.8386936751405883
    - 0.9145296217112828
    - 2.880108761416131
    - -1.5570854799042384
    - -1.9103410795571516
    time_from_start:
      nsecs: 692331615
      secs: 0
    velocities:
    - 0.00540689460109902
    - 0.004290329420514291
    - -0.005047964056400301
    - 0.02500495656505433
    - -0.007508788440486828
    - 0.2352
  - accelerations:
    - 4.635406443792985e-16
    - 0.0
    - 2.305175096372728e-16
    - 9.27081288758597e-16
    - 0.0
    - 0.0
    effort: []
    positions:
    - -1.281007871363958
    - 0.8416640058382343
    - 0.9110347566024068
    - 2.8974204833839936
    - -1.562284051533788
    - -1.7475046836510804
    time_from_start:
      nsecs: 384663230
      secs: 1
    velocities:
    - 0.00540689460109902
    - 0.004290329420514291
    - -0.005047964056400301
    - 0.02500495656505465
    - -0.007508788440486828
    - 0.2352
  - accelerations:
    - 0.0
    - 0.0
    - 0.0
    - -9.27081288758597e-16
    - 0.0
    - 0.0
    effort: []
    positions:
    - -1.2772645072913094
    - 0.8446343365358803
    - 0.907539891493531
    - 2.9147322053518567
    - -1.5674826231633374
    - -1.5846682877450091
    time_from_start:
      nsecs: 76994846
      secs: 2
    velocities:
    - 0.005406894601099181
    - 0.004290329420514291
    - -0.005047964056400222
    - 0.02500495656505465
    - -0.007508788440486828
    - 0.2352
  - accelerations:
    - -0.015619378003331413
    - -0.012393856718457844
    - 0.014582503370440479
    - -0.07223404511474456
    - 0.02169130594392694
    - -0.6794431882649825
    effort: []
    positions:
    - -1.2735211432186606
    - 0.8476046672335262
    - 0.9040450263846551
    - 2.9320439273197194
    - -1.572681194792887
    - -1.4218318918389379
    time_from_start:
      nsecs: 769326461
      secs: 2
    velocities:
    - 0.0
    - 0.0
    - 0.0
    - 0.0
    - 0.0
    - 0.0
multi_dof_joint_trajectory:
  header:
    frame_id: ''
    seq: 0
    stamp:
      nsecs: 0
      secs: 0
  joint_names: []
  points: []
---
joint_trajectory:
  header:
    frame_id: base
    seq: 0
    stamp:
      nsecs: 0
      secs: 0
  joint_names:
  - joint_1
  - joint_2
  - joint_3
  - joint_4
  - joint_5
  - joint_6
  points:
  - accelerations:
    - -0.04084626795016042
    - 0.0
    - 0.0
    - 0.0
    - 0.0
    - 0.0
    effort: []
    positions:
    - -1.2735211432186606
    - 0.8476046672335262
    - 0.9040450263846551
    - 2.9320439273197194
    - -1.572681194792887
    - -1.4218318918389379
    time_from_start:
      nsecs: 0
      secs: 0
    velocities:
    - 0.0
    - 0.0
    - 0.0
    - 0.0
    - 0.0
    - 0.0
  - accelerations:
    - 0.04084626795016042
    - -0.27007748491872224
    - 0.39208364932942763
    - -1.0067465065973535
    - 0.2608451013061953
    - 0.04743961834057784
    effort: []
    positions:
    - -1.277386166131298
    - 0.8731603843108371
    - 0.8669446408567099
    - 3.0273059551741173
    - -1.5973633100458104
    - -1.4263208016232254
    time_from_start:
      nsecs: 435025629
      secs: 0
    velocities:
    - 0.0
    - 0.0
    - 0.0
    - 0.0
    - 0.0
    - 0.0
multi_dof_joint_trajectory:
  header:
    frame_id: ''
    seq: 0
    stamp:
      nsecs: 0
      secs: 0
  joint_names: []
  points: []
---
joint_trajectory:
  header:
    frame_id: base
    seq: 0
    stamp:
      nsecs: 0
      secs: 0
  joint_names:
  - joint_1
  - joint_2
  - joint_3
  - joint_4
  - joint_5
  - joint_6
  points:
  - accelerations:
    - 0.041282404751855954
    - 0.0
    - 0.0
    - 0.0
    - 0.0
    - 0.0
    effort: []
    positions:
    - -1.277386166131298
    - 0.8731603843108371
    - 0.8669446408567099
    - 3.0273059551741173
    - -1.5973633100458104
    - -1.4263208016232254
    time_from_start:
      nsecs: 0
      secs: 0
    velocities:
    - 0.0
    - 0.0
    - 0.0
    - 0.0
    - 0.0
    - 0.0
  - accelerations:
    - 1.2557019420422324e-15
    - -5.722186065002579e-16
    - 1.4305465162506445e-15
    - 1.2715969033339063e-16
    - 1.764340703375795e-15
    - 1.2676231630109877e-15
    effort: []
    positions:
    - -1.2734525086917259
    - 0.8478152965777404
    - 0.9045532416498927
    - 2.931686156457081
    - -1.5712372542452626
    - -1.4218717906719935
    time_from_start:
      nsecs: 436546763
      secs: 0
    velocities:
    - 0.009010850086855674
    - -0.05805812771179618
    - 0.08615022251673962
    - -0.21903678314912736
    - 0.05984709543115853
    - 0.010191373125945175
  - accelerations:
    - -0.04128240475185864
    - 0.26598812589609466
    - -0.3946895488347502
    - 1.0034974558834784
    - -0.27418412169747475
    - -0.046690865601704115
    effort: []
    positions:
    - -1.2695188512521536
    - 0.8224702088446436
    - 0.9421618424430757
    - 2.8360663577400453
    - -1.5451111984447146
    - -1.4174227797207615
    time_from_start:
      nsecs: 873093527
      secs: 0
    velocities:
    - 0.0
    - 0.0
    - 0.0
    - 0.0
    - 0.0
    - 0.0
multi_dof_joint_trajectory:
  header:
    frame_id: ''
    seq: 0
    stamp:
      nsecs: 0
      secs: 0
  joint_names: []
  points: []
---
joint_trajectory:
  header:
    frame_id: base
    seq: 0
    stamp:
      nsecs: 0
      secs: 0
  joint_names:
  - joint_1
  - joint_2
  - joint_3
  - joint_4
  - joint_5
  - joint_6
  points:
  - accelerations:
    - 0.011057162806582836
    - 0.0
    - 0.0
    - 0.0
    - 0.0
    - 0.0
    effort: []
    positions:
    - -1.2695188512521536
    - 0.8224702088446436
    - 0.9421618424430757
    - 2.8360663577400453
    - -1.5451111984447146
    - -1.4174227797207615
    time_from_start:
      nsecs: 0
      secs: 0
    velocities:
    - 0.0
    - 0.0
    - 0.0
    - 0.0
    - 0.0
    - 0.0
  - accelerations:
    - 6.796928729707673e-16
    - -2.7127431737192486e-16
    - -4.460955441227209e-16
    - 1.2056636327641105e-16
    - 6.480442026107094e-16
    - 4.822654531056442e-17
    effort: []
    positions:
    - -1.2676876255279337
    - 0.8342931847942162
    - 0.9211626261540145
    - 2.8593600450222585
    - -1.5494479993075483
    - -1.2820593332462762
    time_from_start:
      nsecs: 575524857
      secs: 0
    velocities:
    - 0.0031818360240829873
    - 0.020542945793446628
    - -0.036487070917761905
    - 0.04047381617022595
    - -0.007535384104827218
    - 0.23520000000000002
  - accelerations:
    - -6.796928729707673e-16
    - 2.7127431737192486e-16
    - 4.460955441227209e-16
    - -1.2056636327641105e-16
    - -6.480442026107094e-16
    - -4.822654531056442e-17
    effort: []
    positions:
    - -1.2658563998037136
    - 0.8461161607437887
    - 0.9001634098649531
    - 2.8826537323044716
    - -1.5537848001703818
    - -1.1466958867717911
    time_from_start:
      nsecs: 151049715
      secs: 1
    velocities:
    - 0.0031818360240829873
    - 0.020542945793446628
    - -0.036487070917761905
    - 0.04047381617022595
    - -0.007535384104827218
    - 0.23520000000000002
  - accelerations:
    - 4.521238622865412e-18
    - -3.07444226354848e-16
    - -3.8581236248451517e-16
    - -1.2780034507299565e-15
    - -1.0549556786685961e-17
    - 0.0
    effort: []
    positions:
    - -1.2640251740794937
    - 0.8579391366933613
    - 0.8791641935758919
    - 2.905947419586685
    - -1.5581216010332155
    - -1.0113324402973058
    time_from_start:
      nsecs: 726574572
      secs: 1
    velocities:
    - 0.003181836024082793
    - 0.020542945793446614
    - -0.03648707091776189
    - 0.040473816170225545
    - -0.007535384104827408
    - 0.2352
  - accelerations:
    - -4.521238622865412e-18
    - 3.07444226354848e-16
    - 3.8581236248451517e-16
    - 1.2780034507299565e-15
    - 1.0549556786685961e-17
    - 0.0
    effort: []
    positions:
    - -1.2621939483552738
    - 0.8697621126429338
    - 0.8581649772868306
    - 2.9292411068688975
    - -1.5624584018960492
    - -0.8759689938228207
    time_from_start:
      nsecs: 302099430
      secs: 2
    velocities:
    - 0.003181836024082793
    - 0.020542945793446614
    - -0.03648707091776189
    - 0.040473816170225545
    - -0.007535384104827408
    - 0.2352
  - accelerations:
    - 6.796928729707673e-16
    - -2.7127431737192486e-16
    - -4.460955441227209e-16
    - 1.2056636327641105e-16
    - 6.480442026107094e-16
    - 4.822654531056442e-17
    effort: []
    positions:
    - -1.2603627226310539
    - 0.8815850885925064
    - 0.8371657609977694
    - 2.9525347941511106
    - -1.566795202758883
    - -0.7406055473483354
    time_from_start:
      nsecs: 877624287
      secs: 2
    velocities:
    - 0.0031818360240829873
    - 0.020542945793446628
    - -0.036487070917761905
    - 0.04047381617022595
    - -0.007535384104827218
    - 0.23520000000000002
  - accelerations:
    - -6.796928729707673e-16
    - 2.7127431737192486e-16
    - 4.460955441227209e-16
    - -1.2056636327641105e-16
    - -6.480442026107094e-16
    - -4.822654531056442e-17
    effort: []
    positions:
    - -1.2585314969068337
    - 0.8934080645420789
    - 0.8161665447087081
    - 2.975828481433324
    - -1.5711320036217165
    - -0.6052421008738503
    time_from_start:
      nsecs: 453149145
      secs: 3
    velocities:
    - 0.0031818360240829873
    - 0.020542945793446628
    - -0.036487070917761905
    - 0.04047381617022595
    - -0.007535384104827218
    - 0.23520000000000002
  - accelerations:
    - -0.011057162806582836
    - -0.0713885613355655
    - 0.1267958123609855
    - -0.14065010623132232
    - 0.0261861290860302
    - -0.8173408913672585
    effort: []
    positions:
    - -1.2567002711826138
    - 0.9052310404916515
    - 0.7951673284196469
    - 2.999122168715537
    - -1.5754688044845502
    - -0.46987865439936505
    time_from_start:
      nsecs: 28674002
      secs: 4
    velocities:
    - 0.0
    - 0.0
    - 0.0
    - 0.0
    - 0.0
    - 0.0
multi_dof_joint_trajectory:
  header:
    frame_id: ''
    seq: 0
    stamp:
      nsecs: 0
      secs: 0
  joint_names: []
  points: []
---
joint_trajectory:
  header:
    frame_id: base
    seq: 0
    stamp:
      nsecs: 0
      secs: 0
  joint_names:
  - joint_1
  - joint_2
  - joint_3
  - joint_4
  - joint_5
  - joint_6
  points:
  - accelerations:
    - -0.04368208713697922
    - 0.0
    - 0.0
    - 0.0
    - 0.0
    - 0.0
    effort: []
    positions:
    - -1.2567002711826138
    - 0.9052310404916515
    - 0.7951673284196469
    - 2.999122168715537
    - -1.5754688044845502
    - -0.46987865439936505
    time_from_start:
      nsecs: 0
      secs: 0
    velocities:
    - 0.0
    - 0.0
    - 0.0
    - 0.0
    - 0.0
    - 0.0
  - accelerations:
    - 0.04368208713697922
    - -0.292170938286127
    - 0.4058924996705303
    - -0.9795369403476168
    - 0.29386843522262884
    - 0.07192393758611744
    effort: []
    positions:
    - -1.2608557556904676
    - 0.9330253124064951
    - 0.7565547046925389
    - 3.092305687344598
    - -1.603424559576689
    - -0.4767207910272629
    time_from_start:
      nsecs: 436188430
      secs: 0
    velocities:
    - 0.0
    - 0.0
    - 0.0
    - 0.0
    - 0.0
    - 0.0
multi_dof_joint_trajectory:
  header:
    frame_id: ''
    seq: 0
    stamp:
      nsecs: 0
      secs: 0
  joint_names: []
  points: []
---
joint_trajectory:
  header:
    frame_id: base
    seq: 0
    stamp:
      nsecs: 0
      secs: 0
  joint_names:
  - joint_1
  - joint_2
  - joint_3
  - joint_4
  - joint_5
  - joint_6
  points:
  - accelerations:
    - 0.04061224021279207
    - 0.0
    - 0.0
    - 0.0
    - 0.0
    - 0.0
    effort: []
    positions:
    - -1.2608557556904676
    - 0.9330253124064951
    - 0.7565547046925389
    - 3.092305687344598
    - -1.603424559576689
    - -0.4767207910272629
    time_from_start:
      nsecs: 0
      secs: 0
    velocities:
    - 0.0
    - 0.0
    - 0.0
    - 0.0
    - 0.0
    - 0.0
  - accelerations:
    - 1.0520711465443376e-15
    - 1.1619890275265818e-15
    - -3.1405108852069775e-16
    - -2.512408708165582e-16
    - -5.966970681893257e-16
    - 1.766537372928925e-16
    effort: []
    positions:
    - -1.256890539870755
    - 0.9050350034039596
    - 0.7963423578760602
    - 2.9977797794007373
    - -1.576287790283141
    - -0.4718127087333881
    time_from_start:
      nsecs: 441895867
      secs: 0
    velocities:
    - 0.008973190552020427
    - -0.06334141386228115
    - 0.09003852750171654
    - -0.21390991629415876
    - 0.06140987348700457
    - 0.011106875305245761
  - accelerations:
    - -0.040612240212794
    - 0.2866802727836497
    - -0.4075101588567657
    - 0.9681462634804675
    - -0.2779382115015818
    - -0.05026919748278556
    effort: []
    positions:
    - -1.2529253240510423
    - 0.8770446944014242
    - 0.8361300110595816
    - 2.903253871456876
    - -1.549151020989593
    - -0.46690462643951325
    time_from_start:
      nsecs: 883791734
      secs: 0
    velocities:
    - 0.0
    - 0.0
    - 0.0
    - 0.0
    - 0.0
    - 0.0
multi_dof_joint_trajectory:
  header:
    frame_id: ''
    seq: 0
    stamp:
      nsecs: 0
      secs: 0
  joint_names: []
  points: []
---
joint_trajectory:
  header:
    frame_id: base
    seq: 0
    stamp:
      nsecs: 0
      secs: 0
  joint_names:
  - joint_1
  - joint_2
  - joint_3
  - joint_4
  - joint_5
  - joint_6
  points:
  - accelerations:
    - -0.24803758437311357
    - 0.0
    - 0.0
    - 0.0
    - 0.0
    - 0.0
    effort: []
    positions:
    - -1.2529253240510423
    - 0.8770446944014242
    - 0.8361300110595816
    - 2.903253871456876
    - -1.549151020989593
    - -0.46690462643951325
    time_from_start:
      nsecs: 0
      secs: 0
    velocities:
    - 0.0
    - 0.0
    - 0.0
    - 0.0
    - 0.0
    - 0.0
  - accelerations:
    - 0.24803758437311357
    - -0.2625164560875326
    - 0.35439445721848306
    - -0.9996788289812222
    - 0.299205930864481
    - 0.2409246172289988
    effort: []
    positions:
    - -1.2754751493484249
    - 0.9009108364517237
    - 0.8039109700749857
    - 2.994137609919304
    - -1.5763527109511652
    - -0.4888077910025914
    time_from_start:
      nsecs: 426410453
      secs: 0
    velocities:
    - 0.0
    - 0.0
    - 0.0
    - 0.0
    - 0.0
    - 0.0
multi_dof_joint_trajectory:
  header:
    frame_id: ''
    seq: 0
    stamp:
      nsecs: 0
      secs: 0
  joint_names: []
  points: []
---
joint_trajectory:
  header:
    frame_id: base
    seq: 0
    stamp:
      nsecs: 0
      secs: 0
  joint_names:
  - joint_1
  - joint_2
  - joint_3
  - joint_4
  - joint_5
  - joint_6
  points:
  - accelerations:
    - -0.03788942282291728
    - 0.0
    - 0.0
    - 0.0
    - 0.0
    - 0.0
    effort: []
    positions:
    - -1.2754751493484249
    - 0.9009108364517237
    - 0.8039109700749857
    - 2.994137609919304
    - -1.5763527109511652
    - -0.4888077910025914
    time_from_start:
      nsecs: 0
      secs: 0
    velocities:
    - 0.0
    - 0.0
    - 0.0
    - 0.0
    - 0.0
    - 0.0
  - accelerations:
    - 0.03788942282291728
    - -0.2861283720864067
    - 0.39886022091315754
    - -0.9707377407074043
    - 0.25797787429624897
    - 0.07159138791087262
    effort: []
    positions:
    - -1.27915261724724
    - 0.928681856036946
    - 0.7651984337194495
    - 3.0883553787225977
    - -1.6013915022719771
    - -0.49575630093646716
    time_from_start:
      nsecs: 440585752
      secs: 0
    velocities:
    - 0.0
    - 0.0
    - 0.0
    - 0.0
    - 0.0
    - 0.0
multi_dof_joint_trajectory:
  header:
    frame_id: ''
    seq: 0
    stamp:
      nsecs: 0
      secs: 0
  joint_names: []
  points: []
---
joint_trajectory:
  header:
    frame_id: base
    seq: 0
    stamp:
      nsecs: 0
      secs: 0
  joint_names:
  - joint_1
  - joint_2
  - joint_3
  - joint_4
  - joint_5
  - joint_6
  points:
  - accelerations:
    - 0.040241581186541135
    - 0.0
    - 0.0
    - 0.0
    - 0.0
    - 0.0
    effort: []
    positions:
    - -1.27915261724724
    - 0.928681856036946
    - 0.7651984337194495
    - 3.0883553787225977
    - -1.6013915022719771
    - -0.49575630093646716
    time_from_start:
      nsecs: 0
      secs: 0
    velocities:
    - 0.0
    - 0.0
    - 0.0
    - 0.0
    - 0.0
    - 0.0
  - accelerations:
    - -1.268479362843268e-15
    - 6.402419497000722e-16
    - -1.5045685817951697e-15
    - -1.9207258491002165e-16
    - -1.7766714104177e-15
    - 1.800680483531453e-16
    effort: []
    positions:
    - -1.2753711767993896
    - 0.9007841667009441
    - 0.8046133727803304
    - 2.9934481851540715
    - -1.575966307380786
    - -0.4909068149607867
    time_from_start:
      nsecs: 433516979
      secs: 0
    velocities:
    - 0.008722704362301714
    - -0.06435201078139863
    - 0.09091902031186205
    - -0.2189238209012681
    - 0.058648671438377084
    - 0.01118638070818653
  - accelerations:
    - -0.04024158118653842
    - 0.2968834616897854
    - -0.4194484858495175
    - 1.0099896025985629
    - -0.27057150800274854
    - -0.051607578195307
    effort: []
    positions:
    - -1.2715897363515394
    - 0.8728864773649422
    - 0.8440283118412112
    - 2.898540991585545
    - -1.550541112489595
    - -0.4860573289851062
    time_from_start:
      nsecs: 867033959
      secs: 0
    velocities:
    - 0.0
    - 0.0
    - 0.0
    - 0.0
    - 0.0
    - 0.0
multi_dof_joint_trajectory:
  header:
    frame_id: ''
    seq: 0
    stamp:
      nsecs: 0
      secs: 0
  joint_names: []
  points: []
---
joint_trajectory:
  header:
    frame_id: base
    seq: 0
    stamp:
      nsecs: 0
      secs: 0
  joint_names:
  - joint_1
  - joint_2
  - joint_3
  - joint_4
  - joint_5
  - joint_6
  points:
  - accelerations:
    - -0.23977185973153703
    - 0.0
    - 0.0
    - 0.0
    - 0.0
    - 0.0
    effort: []
    positions:
    - -1.2715897363515394
    - 0.8728864773649422
    - 0.8440283118412112
    - 2.898540991585545
    - -1.550541112489595
    - -0.4860573289851062
    time_from_start:
      nsecs: 0
      secs: 0
    velocities:
    - 0.0
    - 0.0
    - 0.0
    - 0.0
    - 0.0
    - 0.0
  - accelerations:
    - 7.220543613496816e-16
    - -8.123111565183917e-16
    - -6.769259637653265e-17
    - 1.6246223130367835e-15
    - 3.2266804272813894e-15
    - 1.353851927530653e-16
    effort: []
    positions:
    - -1.2829270164376354
    - 0.8853808557231347
    - 0.8270088727674993
    - 2.944997189951035
    - -1.5641301168429576
    - -0.49727297636581547
    time_from_start:
      nsecs: 307517850
      secs: 0
    velocities:
    - -0.0368670634207591
    - 0.04062976620815431
    - -0.05534455662657495
    - 0.15106829842974018
    - -0.04418931891210792
    - -0.03647153286762144
  - accelerations:
    - 0.23977185973153411
    - -0.26424330283656783
    - 0.35994370142589144
