joint_trajectory:
  header:
    frame_id: base
    seq: 0
    stamp:
      nsecs: 0
      secs: 0
  joint_names:
  - joint_1
  - joint_2
  - joint_3
  - joint_4
  - joint_5
  - joint_6
  points:
  - accelerations:
    - -0.43231923327089145
    - 0.0
    - 0.0
    - 0.0
    - 0.0
    - 0.0
    effort: []
    positions:
    - 1.3563908200709063
    - -0.556323299599029
    - -2.4606095796832994
    - 1.4695730358704018
    - 1.6034585328261188
    - -2.818910740110342
    time_from_start:
      nsecs: 0
      secs: 0
    velocities:
    - 0.0
    - 0.0
    - 0.0
    - 0.0
    - 0.0
    - 0.0
  - accelerations:
    - 0.43231923327089145
    - -0.39197949226947126
    - -0.31704061744816503
    - -1.0060671586966337
    - 0.7799495964165148
    - -0.28784449014245117
    effort: []
    positions:
    - 1.3496172293854745
    - -0.550181753182904
    - -2.4556421778006614
    - 1.485336126222656
    - 1.5912382592069647
    - -2.814400784024118
    time_from_start:
      nsecs: 177019942
      secs: 0
    velocities:
    - 0.0
    - 0.0
    - 0.0
    - 0.0
    - 0.0
    - 0.0
multi_dof_joint_trajectory:
  header:
    frame_id: ''
    seq: 0
    stamp:
      nsecs: 0
      secs: 0
  joint_names: []
  points: []
---
joint_trajectory:
  header:
    frame_id: base
    seq: 0
    stamp:
      nsecs: 0
      secs: 0
  joint_names:
  - joint_1
  - joint_2
  - joint_3
  - joint_4
  - joint_5
  - joint_6
  points:
  - accelerations:
    - -0.065846188974131
    - 0.0
    - 0.0
    - 0.0
    - 0.0
    - 0.0
    effort: []
    positions:
    - 1.3511670295927158
    - -0.5513019093636846
    - -2.456758648747045
    - 1.4805881364550786
    - 1.5945270894783201
    - -2.816111225172451
    time_from_start:
      nsecs: 0
      secs: 0
    velocities:
    - 0.0
    - 0.0
    - 0.0
    - 0.0
    - 0.0
    - 0.0
  - accelerations:
    - 1.8427146915592588e-15
    - 4.794054482105389e-16
    - 0.0
    - 0.0
    - 0.0
    - 0.0
    effort: []
    positions:
    - 1.3471942205056346
    - -0.5196025727749496
    - -2.4694980076210182
    - 1.4218338566949225
    - 1.583212001661122
    - -2.8119045724024905
    time_from_start:
      nsecs: 347374971
      secs: 0
    velocities:
    - -0.011436658994349678
    - 0.09125394524780374
    - -0.03667322039764013
    - -0.16913791912644505
    - -0.03257312345494401
    - 0.012109832660754508
  - accelerations:
    - 0.06584618897412732
    - -0.5253915961287609
    - 0.2111448633544059
    - 0.9738060207087746
    - 0.18753868971275056
    - -0.0697219642746255
    effort: []
    positions:
    - 1.3432214114185537
    - -0.4879032361862145
    - -2.4822373664949913
    - 1.3630795769347663
    - 1.5718969138439238
    - -2.80769791963253
    time_from_start:
      nsecs: 694749942
      secs: 0
    velocities:
    - 0.0
    - 0.0
    - 0.0
    - 0.0
    - 0.0
    - 0.0
multi_dof_joint_trajectory:
  header:
    frame_id: ''
    seq: 0
    stamp:
      nsecs: 0
      secs: 0
  joint_names: []
  points: []
---
joint_trajectory:
  header:
    frame_id: base
    seq: 0
    stamp:
      nsecs: 0
      secs: 0
  joint_names:
  - joint_1
  - joint_2
  - joint_3
  - joint_4
  - joint_5
  - joint_6
  points:
  - accelerations:
    - 0.05459481576972886
    - 0.0
    - 0.0
    - 0.0
    - 0.0
    - 0.0
    effort: []
    positions:
    - 1.3432481200913653
    - -0.48810659472421747
    - -2.4821529550053865
    - 1.3636027934608954
    - 1.5719777050544557
    - -2.807743839343531
    time_from_start:
      nsecs: 0
      secs: 0
    velocities:
    - 0.0
    - 0.0
    - 0.0
    - 0.0
    - 0.0
    - 0.0
  - accelerations:
    - 0.006438323709396139
    - -0.05915268068261779
    - 0.029321170708859014
    - 0.11541568995012655
    - 0.018973210614085797
    - -0.00743591599151878
    effort: []
    positions:
    - 1.3475200390700204
    - -0.5273552362421473
    - -2.462697942911973
    - 1.4401827385812556
    - 1.5845666990483533
    - -2.8126776749320586
    time_from_start:
      nsecs: 395595005
      secs: 0
    velocities:
    - 0.011959531886571523
    - -0.10987927956584533
    - 0.0544656484936558
    - 0.21439083936632947
    - 0.03524375715975592
    - -0.013812613099387215
  - accelerations:
    - -0.006438323709396139
    - 0.05915268068261779
    - -0.029321170708859014
    - -0.11541568995012655
    - -0.018973210614085797
    - 0.00743591599151878
    effort: []
    positions:
    - 1.3517919580486757
    - -0.566603877760077
    - -2.4432429308185597
    - 1.5167626837016155
    - 1.597155693042251
    - -2.8176115105205857
    time_from_start:
      nsecs: 721190010
      secs: 0
    velocities:
    - 0.011959531886571523
    - -0.10987927956584533
    - 0.0544656484936558
    - 0.21439083936632947
    - 0.03524375715975592
    - -0.013812613099387215
  - accelerations:
    - -0.05459481576972886
    - 0.5015948016781236
    - -0.2486336483310724
    - -0.9786861633827749
    - -0.16088643330015712
    - 0.06305406220007385
    effort: []
    positions:
    - 1.3560638770273308
    - -0.6058525192780069
    - -2.423787918725146
    - 1.5933426288219756
    - 1.6097446870361487
    - -2.8225453461091132
    time_from_start:
      nsecs: 116785014
      secs: 1
    velocities:
    - 0.0
    - 0.0
    - 0.0
    - 0.0
    - 0.0
    - 0.0
multi_dof_joint_trajectory:
  header:
    frame_id: ''
    seq: 0
    stamp:
      nsecs: 0
      secs: 0
  joint_names: []
  points: []
---
joint_trajectory:
  header:
    frame_id: base
    seq: 0
    stamp:
      nsecs: 0
      secs: 0
  joint_names:
  - joint_1
  - joint_2
  - joint_3
  - joint_4
  - joint_5
  - joint_6
  points:
  - accelerations:
    - 0.09146980644708845
    - 0.0
    - 0.0
    - 0.0
    - 0.0
    - 0.0
    effort: []
    positions:
    - 1.3560480712386132
    - -0.6058150192438708
    - -2.4238060249989495
    - 1.593192179981918
    - 1.6097286792966015
    - -2.8225265139223428
    time_from_start:
      nsecs: 0
      secs: 0
    velocities:
    - 0.0
    - 0.0
    - 0.0
    - 0.0
    - 0.0
    - 0.0
  - accelerations:
    - -1.2996701650726082e-16
    - -1.5230509746944627e-18
    - 9.530914543865794e-16
    - 7.1481859078993455e-16
    - 5.604827586875623e-16
    - 0.0
    effort: []
    positions:
    - 1.374820672337037
    - -0.6055980505616599
    - -2.4058378120151285
    - 1.5684234946763107
    - 1.6071767598948004
    - -2.973213470357121
    time_from_start:
      nsecs: 640675835
      secs: 0
    velocities:
    - 0.029301247319706653
    - 0.00033865594782311024
    - 0.02804571672149961
    - -0.03866024586142783
    - -0.003983167870029824
    - -0.23519999999999996
  - accelerations:
    - 1.2996701650726082e-16
    - 2.720338268690388e-16
    - -9.530914543865794e-16
    - -1.7328935534301444e-16
    - -5.604827586875623e-16
    - 0.0
    effort: []
    positions:
    - 1.393593273435461
    - -0.6053810818794491
    - -2.387869599031307
    - 1.5436548093707037
    - 1.6046248404929995
    - -3.1239004267919
    time_from_start:
      nsecs: 281351670
      secs: 1
    velocities:
    - 0.029301247319706653
    - 0.00033865594782319687
    - 0.02804571672149961
    - -0.038660245861427654
    - -0.003983167870029824
    - -0.23519999999999996
  - accelerations:
    - 0.0
    - -2.7051077589434466e-16
    - 1.0830584708938417e-15
    - -5.415292354469208e-16
    - 5.415292354469208e-16
    - 0.0
    effort: []
    positions:
    - 1.412365874533885
    - -0.6051641131972381
    - -2.369901386047486
    - 1.5188861240650966
    - 1.6020729210911984
    - -3.2745873832266783
    time_from_start:
      nsecs: 922027506
      secs: 1
    velocities:
    - 0.029301247319706694
    - 0.0003386559478231974
    - 0.02804571672149965
    - -0.03866024586142788
    - -0.00398316787002983
    - -0.23519999999999996
  - accelerations:
    - -1.2996701650726082e-16
    - -1.5230509746944627e-18
    - -1.213025487401101e-15
    - 1.7328935534301444e-16
    - -5.225757122062779e-16
    - 0.0
    effort: []
    positions:
    - 1.431138475632309
    - -0.6049471445150272
    - -2.3519331730636646
    - 1.4941174387594893
    - 1.5995210016893975
    - -3.4252743396614567
    time_from_start:
      nsecs: 562703341
      secs: 2
    velocities:
    - 0.029301247319706653
    - 0.00033865594782311024
    - 0.02804571672149961
    - -0.038660245861428
    - -0.003983167870029824
    - -0.23519999999999996
  - accelerations:
    - 1.2996701650726082e-16
    - 1.5230509746944627e-18
    - 1.2996701650726082e-16
    - 3.6823988010390567e-16
    - 5.225757122062779e-16
    - 0.0
    effort: []
    positions:
    - 1.4499110767307328
    - -0.6047301758328163
    - -2.3339649600798436
    - 1.469348753453882
    - 1.5969690822875964
    - -3.5759612960962355
    time_from_start:
      nsecs: 203379176
      secs: 3
    velocities:
    - 0.029301247319706653
    - 0.00033865594782311024
    - 0.02804571672149926
    - -0.03866024586142783
    - -0.003983167870029824
    - -0.23519999999999996
  - accelerations:
    - 4.0614692658519007e-16
    - -1.5230509746944627e-18
    - 9.530914543865794e-16
    - 1.7328935534301444e-16
    - -5.225757122062779e-16
    - 0.0
    effort: []
    positions:
    - 1.4686836778291568
    - -0.6045132071506054
    - -2.3159967470960225
    - 1.444580068148275
    - 1.5944171628857955
    - -3.726648252531014
    time_from_start:
      nsecs: 844055011
      secs: 3
    velocities:
    - 0.029301247319706826
    - 0.00033865594782311024
    - 0.02804571672149961
    - -0.038660245861427654
    - -0.003983167870029824
    - -0.23519999999999996
  - accelerations:
    - -2.59934033014522e-16
    - 3.2153298354660924e-18
    - -8.177091455248504e-16
    - -8.989385308418886e-16
    - -3.7907046481284457e-17
    - -8.664467767150733e-17
    effort: []
    positions:
    - 1.487456278927581
    - -0.6042962384683945
    - -2.298028534112201
    - 1.419811382842668
    - 1.5918652434839944
    - -3.8773352089657926
    time_from_start:
      nsecs: 484730846
      secs: 4
    velocities:
    - 0.02930124731970687
    - 0.0003386559478231108
    - 0.02804571672149965
    - -0.03866024586142788
    - -0.003983167870030004
    - -0.2352
  - accelerations:
    - -2.7617991007792965e-16
    - -3.2153298354660924e-18
    - 8.177091455248504e-16
    - 3.5740929539496777e-16
    - 5.794362819282053e-16
    - 8.664467767150733e-17
    effort: []
    positions:
    - 1.5062288800260049
    - -0.6040792697861836
    - -2.28006032112838
    - 1.3950426975370607
    - 1.5893133240821933
    - -4.028022165400571
    time_from_start:
      nsecs: 125406681
      secs: 5
    velocities:
    - 0.0293012473197067
    - 0.0003386559478231108
    - 0.02804571672149965
    - -0.038660245861428064
    - -0.00398316787002983
    - -0.2352
  - accelerations:
    - 0.0
    - 2.704261619513053e-16
    - -1.0830584708938385e-15
    - 5.415292354469193e-16
    - -5.415292354469193e-16
    - 0.0
    effort: []
    positions:
    - 1.5250014811244288
    - -0.6038623011039728
    - -2.2620921081445586
    - 1.3702740122314534
    - 1.5867614046803924
    - -4.178709121835349
    time_from_start:
      nsecs: 766082517
      secs: 5
    velocities:
    - 0.02930124731970661
    - 0.0003386559478231964
    - 0.028045716721499567
    - -0.03866024586142777
    - -0.003983167870029818
    - -0.23519999999999996
  - accelerations:
    - 2.7617991007792965e-16
    - -2.6721083211584003e-16
    - 1.348407796262833e-15
    - -3.6823988010390616e-16
    - 5.036221889656364e-16
    - -8.664467767150733e-17
    effort: []
    positions:
    - 1.5437740822228527
    - -0.6036453324217618
    - -2.2441238951607376
    - 1.3455053269258463
    - 1.5842094852785913
    - -4.329396078270128
    time_from_start:
      nsecs: 406758352
      secs: 6
    velocities:
    - 0.0293012473197067
    - 0.0003386559478231974
    - 0.02804571672149965
    - -0.03866024586142772
    - -0.00398316787002983
    - -0.2352
  - accelerations:
    - -2.7617991007792965e-16
    - -3.2153298354660924e-18
    - -1.348407796262833e-15
    - -1.7328935534301466e-16
    - -5.036221889656364e-16
    - 8.664467767150733e-17
    effort: []
    positions:
    - 1.5625466833212767
    - -0.6034283637395509
    - -2.226155682176916
    - 1.3207366416202393
    - 1.5816575658767904
    - -4.480083034704906
    time_from_start:
      nsecs: 47434187
      secs: 7
    velocities:
    - 0.0293012473197067
    - 0.0003386559478231108
    - 0.02804571672149965
    - -0.03866024586142789
    - -0.00398316787002983
    - -0.2352
  - accelerations:
    - -0.09146980644708792
    - -0.0010571834591731341
    - -0.08755041217853102
    - 0.12068582499432841
    - 0.01243426909928389
    - 0.7342246642819876
    effort: []
    positions:
    - 1.5813192844197006
    - -0.60321139505734
    - -2.208187469193095
    - 1.295967956314632
    - 1.5791056464749893
    - -4.630769991139685
    time_from_start:
      nsecs: 688110022
      secs: 7
    velocities:
    - 0.0
    - 0.0
    - 0.0
    - 0.0
    - 0.0
    - 0.0
multi_dof_joint_trajectory:
  header:
    frame_id: ''
    seq: 0
    stamp:
      nsecs: 0
      secs: 0
  joint_names: []
  points: []
---
joint_trajectory:
  header:
    frame_id: base
    seq: 0
    stamp:
      nsecs: 0
      secs: 0
  joint_names:
  - joint_1
  - joint_2
  - joint_3
  - joint_4
  - joint_5
  - joint_6
  points:
  - accelerations:
    - 0.004576193714745905
    - 0.0
    - 0.0
    - 0.0
    - 0.0
    - 0.0
    effort: []
    positions:
    - 1.5810951702043965
    - -0.6032083171689012
    - -2.2084608218843247
    - 1.2962533137055545
    - 1.579124164681629
    - -4.6291129983623485
    time_from_start:
      nsecs: 0
      secs: 0
    velocities:
    - 0.0
    - 0.0
    - 0.0
    - 0.0
    - 0.0
    - 0.0
  - accelerations:
    - -0.004576193714745905
    - -0.36619386230639434
    - 0.2742865938828413
    - 1.0074816337559456
    - -0.01674977704946311
    - 0.00819712481726714
    effort: []
    positions:
    - 1.5815275041510166
    - -0.568612308435958
    - -2.2343739306883177
    - 1.2010719166712767
    - 1.5807065927142245
    - -4.62988741822831
    time_from_start:
      nsecs: 434682811
      secs: 0
    velocities:
    - 0.0
    - 0.0
    - 0.0
    - 0.0
    - 0.0
    - 0.0
multi_dof_joint_trajectory:
  header:
    frame_id: ''
    seq: 0
    stamp:
      nsecs: 0
      secs: 0
  joint_names: []
  points: []
---
joint_trajectory:
  header:
    frame_id: base
    seq: 0
    stamp:
      nsecs: 0
      secs: 0
  joint_names:
  - joint_1
  - joint_2
  - joint_3
  - joint_4
  - joint_5
  - joint_6
  points:
  - accelerations:
    - -0.002092183414248082
    - 0.0
    - 0.0
    - 0.0
    - 0.0
    - 0.0
    effort: []
    positions:
    - 1.5815313959909516
    - -0.5689052044320266
    - -2.2341783027409474
    - 1.2021028460040921
    - 1.5806885055059414
    - -4.629883184549599
    time_from_start:
      nsecs: 0
      secs: 0
    velocities:
    - 0.0
    - 0.0
    - 0.0
    - 0.0
    - 0.0
    - 0.0
  - accelerations:
    - -1.1769697446560686e-15
    - 9.914480303142512e-16
    - -3.1982194526266167e-16
    - 1.2792877810506466e-16
    - 1.0993879368403995e-17
    - 4.49749610525618e-18
    effort: []
    positions:
    - 1.5813344288758873
    - -0.6026441853741422
    - -2.206108936974516
    - 1.2947533739052113
    - 1.5797747485343625
    - -4.630274565520853
    time_from_start:
      nsecs: 433922313
      secs: 0
    velocities:
    - -0.00045392253264756966
    - -0.07775350556960703
    - 0.06468753727920692
    - 0.2135186996176952
    - -0.0021058077569332066
    - -0.0009019609270492102
  - accelerations:
    - 0.0020921834142504313
    - 0.3583752359761587
    - -0.2981526204808717
    - -0.9841333043474382
    - 0.009705920604901401
    - 0.004157246129348632
    effort: []
    positions:
    - 1.5811374617608227
    - -0.6363831663162577
    - -2.178039571208085
    - 1.3874039018063307
    - 1.5788609915627836
    - -4.630665946492107
    time_from_start:
      nsecs: 867844625
      secs: 0
    velocities:
    - 0.0
    - 0.0
    - 0.0
    - 0.0
    - 0.0
    - 0.0
multi_dof_joint_trajectory:
  header:
    frame_id: ''
    seq: 0
    stamp:
      nsecs: 0
      secs: 0
  joint_names: []
  points: []
---
joint_trajectory:
  header:
    frame_id: base
    seq: 0
    stamp:
      nsecs: 0
      secs: 0
  joint_names:
  - joint_1
  - joint_2
  - joint_3
  - joint_4
  - joint_5
  - joint_6
  points:
  - accelerations:
    - -0.6238517938336013
    - 0.0
    - 0.0
    - 0.0
    - 0.0
    - 0.0
    effort: []
    positions:
    - 1.581131522353276
    - -0.635979513067735
    - -2.1783637726150666
    - 1.3862041095260162
    - 1.5788579817306754
    - -4.6306688170711725
    time_from_start:
      nsecs: 0
      secs: 0
    velocities:
    - 0.0
    - 0.0
    - 0.0
    - 0.0
    - 0.0
    - 0.0
  - accelerations:
    - 1.004021143585772e-15
    - -6.932526943806522e-16
    - 8.12779020998006e-16
    - -1.0518316742327135e-15
    - 2.590733129431144e-15
    - -1.1068137844766963e-14
    effort: []
    positions:
    - 1.5548503466159345
    - -0.6180441209301387
    - -2.199112671671194
    - 1.3458132955714244
    - 1.580067000304762
    - -4.617261779027547
    time_from_start:
      nsecs: 290266341
      secs: 0
    velocities:
    - -0.09054158886334115
    - 0.06178943123605132
    - -0.07148227714324082
    - -0.1391508700935422
    - 0.004165204165793022
    - 0.04618874507567315
  - accelerations:
    - 0.6238517938335972
    - -0.42574299833361523
    - 0.49252887411142704
    - 0.9587806113319733
    - -0.028699188109404465
    - -0.31825078212259184
    effort: []
    positions:
    - 1.528569170878593
    - -0.6001087287925424
    - -2.2198615707273217
    - 1.3054224816168323
    - 1.581276018878849
    - -4.603854740983923
    time_from_start:
      nsecs: 580532683
      secs: 0
    velocities:
    - 0.0
    - 0.0
    - 0.0
    - 0.0
    - 0.0
    - 0.0
multi_dof_joint_trajectory:
  header:
    frame_id: ''
    seq: 0
    stamp:
      nsecs: 0
      secs: 0
  joint_names: []
  points: []
---
joint_trajectory:
  header:
    frame_id: base
    seq: 0
    stamp:
      nsecs: 0
      secs: 0
  joint_names:
  - joint_1
  - joint_2
  - joint_3
  - joint_4
  - joint_5
  - joint_6
  points:
  - accelerations:
    - -0.01480163822511219
    - 0.0
    - 0.0
    - 0.0
    - 0.0
    - 0.0
    effort: []
    positions:
    - 1.52905380671094
    - -0.600476979154916
    - -2.2194470271711744
    - 1.3063207284163265
    - 1.5812467040704221
    - -4.604167168431576
    time_from_start:
      nsecs: 0
      secs: 0
    velocities:
    - 0.0
    - 0.0
    - 0.0
    - 0.0
    - 0.0
    - 0.0
  - accelerations:
    - 0.01480163822511219
    - -0.3538218820451064
    - 0.27729542838946464
    - 0.9657069343186269
    - 0.032583746030173485
    - -0.023615707534184495
    effort: []
    positions:
    - 1.527600515324914
    - -0.5657371560661912
    - -2.246673138992981
    - 1.2115032799875518
    - 1.5780474853954396
    - -4.601848472094564
    time_from_start:
      nsecs: 443135410
      secs: 0
    velocities:
    - 0.0
    - 0.0
    - 0.0
    - 0.0
    - 0.0
    - 0.0
multi_dof_joint_trajectory:
  header:
    frame_id: ''
    seq: 0
    stamp:
      nsecs: 0
      secs: 0
  joint_names: []
  points: []
---
joint_trajectory:
  header:
    frame_id: base
    seq: 0
    stamp:
      nsecs: 0
      secs: 0
  joint_names:
  - joint_1
  - joint_2
  - joint_3
  - joint_4
  - joint_5
  - joint_6
  points:
  - accelerations:
    - 0.010025735107146222
    - 0.0
    - 0.0
    - 0.0
    - 0.0
    - 0.0
    effort: []
    positions:
    - 1.5275945275916312
    - -0.5661894459104183
    - -2.246327909949998
    - 1.2129685432516155
    - 1.5780921897592233
    - -4.601873121468581
    time_from_start:
      nsecs: 0
      secs: 0
    velocities:
    - 0.0
    - 0.0
    - 0.0
    - 0.0
    - 0.0
    - 0.0
  - accelerations:
    - -1.2215697187576375e-15
    - 6.18413313076306e-16
    - 0.0
    - 0.0
    - -1.2225868459173024e-15
    - 0.0
    effort: []
    positions:
    - 1.5285058588293627
    - -0.5992722334158949
    - -2.2181777168762062
    - 1.3038447008598282
    - 1.5813804980189627
    - -4.6039150143889165
    time_from_start:
      nsecs: 426378221
      secs: 0
    velocities:
    - 0.0021373775502192185
    - -0.07759023764936973
    - 0.0660216485720732
    - 0.21313508314000343
    - 0.007712186262881461
    - -0.004788924056570088
  - accelerations:
    - -0.010025735107143779
    - 0.36395028547634184
    - -0.30968583900992835
    - -0.9997465751344858
    - -0.036175329230289315
    - 0.022463267677945632
    effort: []
    positions:
    - 1.529417190067094
    - -0.6323550209213713
    - -2.1900275238024145
    - 1.3947208584680408
    - 1.584668806278702
    - -4.605956907309252
    time_from_start:
      nsecs: 852756442
      secs: 0
    velocities:
    - 0.0
    - 0.0
    - 0.0
    - 0.0
    - 0.0
    - 0.0
multi_dof_joint_trajectory:
  header:
    frame_id: ''
    seq: 0
    stamp:
      nsecs: 0
      secs: 0
  joint_names: []
  points: []
---
joint_trajectory:
  header:
    frame_id: base
    seq: 0
    stamp:
      nsecs: 0
      secs: 0
  joint_names:
  - joint_1
  - joint_2
  - joint_3
  - joint_4
  - joint_5
  - joint_6
  points:
  - accelerations:
    - -0.6836929975944261
    - 0.0
    - 0.0
    - 0.0
    - 0.0
    - 0.0
    effort: []
    positions:
    - 1.529437967698184
    - -0.6321784498228923
    - -2.1901213625116576
    - 1.3941878669999104
    - 1.5846478270985622
    - -4.605955747419673
    time_from_start:
      nsecs: 0
      secs: 0
    velocities:
    - 0.0
    - 0.0
    - 0.0
    - 0.0
    - 0.0
    - 0.0
  - accelerations:
    - 1.1241972454099796e-15
    - -7.331721165717257e-16
    - 8.79806539886071e-16
    - -1.1730753865147612e-15
    - -2.7738345076963624e-15
    - -1.2170657135090647e-14
    effort: []
    positions:
    - 1.5018803126080296
    - -0.6143643237923632
    - -2.2120527340789375
    - 1.3556324106085413
    - 1.5851159844017824
    - -4.578491509439157
    time_from_start:
      nsecs: 283926260
      secs: 0
    velocities:
    - -0.09705919795480719
    - 0.06274208669542217
    - -0.07724319530835419
    - -0.1357939077866174
    - 0.001648869332988191
    - 0.09673017904128955
  - accelerations:
    - 0.6836929975944216
    - -0.44196043478636304
    - 0.544107440169965
    - 0.9565434891901958
    - -0.011614771610175963
    - -0.6813753612241527
    effort: []
    positions:
    - 1.4743226575178752
    - -0.596550197761834
    - -2.2339841056462175
    - 1.317076954217172
    - 1.5855841417050023
    - -4.551027271458643
    time_from_start:
      nsecs: 567852520
      secs: 0
    velocities:
    - 0.0
    - 0.0
    - 0.0
    - 0.0
    - 0.0
    - 0.0
multi_dof_joint_trajectory:
  header:
    frame_id: ''
    seq: 0
    stamp:
      nsecs: 0
      secs: 0
  joint_names: []
  points: []
---
joint_trajectory:
  header:
    frame_id: base
    seq: 0
    stamp:
      nsecs: 0
      secs: 0
  joint_names:
  - joint_1
  - joint_2
  - joint_3
  - joint_4
  - joint_5
  - joint_6
  points:
  - accelerations:
    - -0.03142374901442409
    - 0.0
    - 0.0
    - 0.0
    - 0.0
    - 0.0
    effort: []
    positions:
    - 1.4750080150230356
    - -0.5970185981633391
    - -2.2335375461826743
    - 1.3181470278690415
    - 1.5855891213858506
    - -4.551740179212276
    time_from_start:
      nsecs: 0
      secs: 0
    velocities:
    - 0.0
    - 0.0
    - 0.0
    - 0.0
    - 0.0
    - 0.0
  - accelerations:
    - 0.03142374901442409
    - -0.36909882891557344
    - 0.28765831293075766
    - 0.9972704899104194
    - 0.09957467016078118
    - -0.05392546262746041
    effort: []
    positions:
    - 1.4719732487993562
    - -0.561372671298329
    - -2.261318309440494
    - 1.221835069761716
    - 1.5759726416462994
    - -4.54653229734869
    time_from_start:
      nsecs: 439489618
      secs: 0
    velocities:
    - 0.0
    - 0.0
    - 0.0
    - 0.0
    - 0.0
    - 0.0
multi_dof_joint_trajectory:
  header:
    frame_id: ''
    seq: 0
    stamp:
      nsecs: 0
      secs: 0
  joint_names: []
  points: []
---
joint_trajectory:
  header:
    frame_id: base
    seq: 0
    stamp:
      nsecs: 0
      secs: 0
  joint_names:
  - joint_1
  - joint_2
  - joint_3
  - joint_4
  - joint_5
  - joint_6
  points:
  - accelerations:
    - 0.02263978110060987
    - 0.0
    - 0.0
    - 0.0
    - 0.0
    - 0.0
    effort: []
    positions:
    - 1.4719547008332596
    - -0.5614692591943619
    - -2.2612397478416786
    - 1.2222765575775514
    - 1.576015057267016
    - -4.546545417189967
    time_from_start:
      nsecs: 0
      secs: 0
    velocities:
    - 0.0
    - 0.0
    - 0.0
    - 0.0
    - 0.0
    - 0.0
  - accelerations:
    - -1.2116123994531487e-15
    - 9.949664737231155e-16
    - 2.0541243328477223e-15
    - 1.2838277080298265e-16
    - -1.2758037848546402e-15
    - -4.706030942246833e-15
    effort: []
    positions:
    - 1.4740710591878718
    - -0.595375646116965
    - -2.232555098995542
    - 1.3145661817052314
    - 1.5842057730543542
    - -4.55008006168956
    time_from_start:
      nsecs: 432387858
      secs: 0
    velocities:
    - 0.004894583224282853
    - -0.07841660287150864
    - 0.06634008873345015
    - 0.21344175717987368
    - 0.018942982883880133
    - -0.008174708046871523
  - accelerations:
    - -0.022639781100607395
    - 0.3627141765322474
    - -0.3068545406826406
    - -0.9872698938507914
    - -0.08762032766261774
    - 0.037811922335776564
    effort: []
    positions:
    - 1.4761874175424838
    - -0.6292820330395681
    - -2.203870450149405
    - 1.4068558058329117
    - 1.5923964888416922
    - -4.553614706189153
    time_from_start:
      nsecs: 864775715
      secs: 0
    velocities:
    - 0.0
    - 0.0
    - 0.0
    - 0.0
    - 0.0
    - 0.0
multi_dof_joint_trajectory:
  header:
    frame_id: ''
    seq: 0
    stamp:
      nsecs: 0
      secs: 0
  joint_names: []
  points: []
---
joint_trajectory:
  header:
    frame_id: base
    seq: 0
    stamp:
      nsecs: 0
      secs: 0
  joint_names:
  - joint_1
  - joint_2
  - joint_3
  - joint_4
  - joint_5
  - joint_6
  points:
  - accelerations:
    - -0.08026819735896862
    - 0.0
    - 0.0
    - 0.0
    - 0.0
    - 0.0
    effort: []
    positions:
    - 1.4761659574650021
    - -0.6288862500833363
    - -2.204224265222227
    - 1.4056897934318535
    - 1.5922747209863857
    - -4.553575097203341
    time_from_start:
      nsecs: 0
      secs: 0
    velocities:
    - 0.0
    - 0.0
    - 0.0
    - 0.0
    - 0.0
    - 0.0
  - accelerations:
    - -2.2726839932188815e-16
    - 8.006045885202877e-17
    - -1.1879939055462334e-16
    - -1.4462534502301972e-16
    - -4.973110357320578e-16
    - 0.0
    effort: []
    positions:
    - 1.4580583419766837
    - -0.622313019239448
    - -2.213771424687313
    - 1.3940053106993349
    - 1.5918647260002918
    - -4.395591793217798
    time_from_start:
      nsecs: 671697721
      secs: 0
    velocities:
    - -0.02695798261848118
    - 0.009785995453190432
    - -0.014213476041707007
    - -0.01739544793252253
    - -0.00061038615028663
    - 0.2352
  - accelerations:
    - 2.2726839932188815e-16
    - 1.652861085977368e-16
    - 1.1027682558005253e-15
    - -3.4606778987651144e-16
    - 4.973110357320578e-16
    - 0.0
    effort: []
    positions:
    - 1.4399507264883653
    - -0.6157397883955598
    - -2.223318584152399
    - 1.3823208279668162
    - 1.5914547310141978
    - -4.237608489232255
    time_from_start:
      nsecs: 343395442
      secs: 1
    velocities:
    - -0.02695798261848118
    - 0.009785995453190515
    - -0.014213476041706676
    - -0.017395447932522692
    - -0.00061038615028663
    - 0.2352
  - accelerations:
    - -7.179615342214193e-16
    - -1.652861085977368e-16
    - -1.1027682558005253e-15
    - 3.4606778987651144e-16
    - -5.165190893679275e-18
    - 0.0
    effort: []
    positions:
    - 1.421843111000047
    - -0.6091665575516714
    - -2.2328657436174844
    - 1.3706363452342973
    - 1.591044736028104
    - -4.079625185246712
    time_from_start:
      nsecs: 15093163
      secs: 2
    velocities:
    - -0.026957982618481348
    - 0.009785995453190515
    - -0.014213476041706676
    - -0.017395447932522692
    - -0.0006103861502864647
    - 0.2352
  - accelerations:
    - 7.179615342214193e-16
    - -8.006045885202877e-17
    - 1.1879939055462334e-16
    - 1.4462534502301972e-16
    - -4.869806539446992e-16
    - 0.0
    effort: []
    positions:
    - 1.4037354955117283
    - -0.6025933267077831
    - -2.2424129030825704
    - 1.3589518625017787
    - 1.59063474104201
    - -3.92164188126117
    time_from_start:
      nsecs: 686790884
      secs: 2
    velocities:
    - -0.026957982618481348
    - 0.009785995453190432
    - -0.014213476041707007
    - -0.01739544793252253
    - -0.00061038615028663
    - 0.2352
  - accelerations:
    - -1.136341996609439e-16
    - 3.873893170259451e-17
    - -5.939969527731158e-17
    - -7.231267251150975e-17
    - 4.895632493915381e-16
    - 0.0
    effort: []
    positions:
    - 1.3856278800234099
    - -0.5960200958638948
    - -2.2519600625476563
    - 1.34726737976926
    - 1.590224746055916
    - -3.763658577275627
    time_from_start:
      nsecs: 358488605
      secs: 3
    velocities:
    - -0.026957982618481143
    - 0.009785995453190418
    - -0.014213476041706988
    - -0.017395447932522505
    - -0.0006103861502866291
    - 0.2352
  - accelerations:
    - 0.08026819735896906
    - -0.029138093362081077
    - 0.04232104887887914
    - 0.05179546509678908
    - 0.0018174429692964786
    - -0.7003150156305419
    effort: []
    positions:
    - 1.3675202645350915
    - -0.5894468650200065
    - -2.2615072220127423
    - 1.3355828970367414
    - 1.5898147510698222
    - -3.605675273290084
    time_from_start:
      nsecs: 30186326
      secs: 4
    velocities:
    - 0.0
    - 0.0
    - 0.0
    - 0.0
    - 0.0
    - 0.0
multi_dof_joint_trajectory:
  header:
    frame_id: ''
    seq: 0
    stamp:
      nsecs: 0
      secs: 0
  joint_names: []
  points: []
---
joint_trajectory:
  header:
    frame_id: base
    seq: 0
    stamp:
      nsecs: 0
      secs: 0
  joint_names:
  - joint_1
  - joint_2
  - joint_3
  - joint_4
  - joint_5
  - joint_6
  points:
  - accelerations:
    - -0.048240184076778166
    - 0.0
    - 0.0
    - 0.0
    - 0.0
    - 0.0
    effort: []
    positions:
    - 1.3676954062660747
    - -0.5894891093923853
    - -2.261420043847477
    - 1.3356983247170997
    - 1.5898147590874794
    - -3.6071318542632747
    time_from_start:
      nsecs: 0
      secs: 0
    velocities:
    - 0.0
    - 0.0
    - 0.0
    - 0.0
    - 0.0
    - 0.0
  - accelerations:
    - 0.048240184076778166
    - -0.38440593811197926
    - 0.28988580966103483
    - 1.001084280124646
    - 0.17687918799654362
    - -0.07966724512204933
    effort: []
    positions:
    - 1.363074808783222
    - -0.5526694922199703
    - -2.2891862240159155
    - 1.2398113045203025
    - 1.5728727107419536
    - -3.5995010734252317
    time_from_start:
      nsecs: 437682909
      secs: 0
    velocities:
    - 0.0
    - 0.0
    - 0.0
    - 0.0
    - 0.0
    - 0.0
multi_dof_joint_trajectory:
  header:
    frame_id: ''
    seq: 0
    stamp:
      nsecs: 0
      secs: 0
  joint_names: []
  points: []
---
joint_trajectory:
  header:
    frame_id: base
    seq: 0
    stamp:
      nsecs: 0
      secs: 0
  joint_names:
  - joint_1
  - joint_2
  - joint_3
  - joint_4
  - joint_5
  - joint_6
  points:
  - accelerations:
    - 0.05053950382151416
    - 0.0
    - 0.0
    - 0.0
    - 0.0
    - 0.0
    effort: []
    positions:
    - 1.3630633701820998
    - -0.5527351227938244
    - -2.2891531381751262
    - 1.240171934838448
    - 1.5729124745970735
    - -3.5995263988222264
    time_from_start:
      nsecs: 0
      secs: 0
    velocities:
    - 0.0
    - 0.0
    - 0.0
    - 0.0
    - 0.0
    - 0.0
  - accelerations:
    - 1.2040199000131685e-15
    - 0.0
    - 0.0
    - 0.0
    - -1.2121005704830554e-15
    - 0.0
    effort: []
    positions:
    - 1.367721661964202
    - -0.5875555679720433
    - -2.2602285758369747
    - 1.3317473775045485
    - 1.5904730165196805
    - -3.6062632862903237
    time_from_start:
      nsecs: 429351372
      secs: 0
    velocities:
    - 0.010849602649942966
    - -0.08110011393646348
    - 0.06736804452614466
    - 0.21328787716500766
    - 0.04090016492954876
    - -0.015690848822966466
  - accelerations:
    - -0.05053950382151657
    - 0.377779689308601
    - -0.31381310944092533
    - -0.9935353239061221
    - -0.190520713840925
    - 0.07309094532188258
    effort: []
    positions:
    - 1.3723799537463046
    - -0.6223760131502623
    - -2.231304013498823
    - 1.4233228201706492
    - 1.6080335584422873
    - -3.613000173758421
    time_from_start:
      nsecs: 858702744
      secs: 0
    velocities:
    - 0.0
    - 0.0
    - 0.0
    - 0.0
    - 0.0
    - 0.0
multi_dof_joint_trajectory:
  header:
    frame_id: ''
    seq: 0
    stamp:
      nsecs: 0
      secs: 0
  joint_names: []
  points: []
---
joint_trajectory:
  header:
    frame_id: base
    seq: 0
    stamp:
      nsecs: 0
      secs: 0
  joint_names:
  - joint_1
  - joint_2
  - joint_3
  - joint_4
  - joint_5
  - joint_6
  points:
  - accelerations:
    - -0.1023792928166239
    - 0.0
    - 0.0
    - 0.0
    - 0.0
    - 0.0
    effort: []
    positions:
    - 1.3723428886843718
    - -0.622130542767105
    - -2.2314536226296875
    - 1.4225791615909726
    - 1.6078723228587617
    - -3.612932751749685
    time_from_start:
      nsecs: 0
      secs: 0
    velocities:
    - 0.0
    - 0.0
    - 0.0
    - 0.0
    - 0.0
    - 0.0
  - accelerations:
    - 7.990999655995146e-16
    - -5.581948289114256e-17
    - -9.180836001832659e-18
    - -3.642955725527199e-16
    - 6.683648609334176e-16
    - 0.0
    effort: []
    positions:
    - 1.3544953543768798
    - -0.6159256451629505
    - -2.230425512844917
    - 1.3927761478318668
    - 1.6044814329973256
    - -3.4740541404131537
    time_from_start:
      nsecs: 590470286
      secs: 0
    velocities:
    - -0.03022596517004406
    - 0.010508399403279908
    - 0.0017411710777553977
    - -0.05047335056624276
    - -0.005742693476946906
    - 0.23519999999999996
  - accelerations:
    - -7.990999655995146e-16
    - 5.581948289114256e-17
    - -1.2643847341723938e-15
    - -2.702838118939535e-16
    - -6.683648609334176e-16
    - 0.0
    effort: []
    positions:
    - 1.336647820069388
    - -0.6097207475587959
    - -2.2293974030601467
    - 1.3629731340727607
    - 1.6010905431358897
    - -3.335175529076622
    time_from_start:
      nsecs: 180940573
      secs: 1
    velocities:
    - -0.03022596517004406
    - 0.010508399403279908
    - 0.0017411710777550217
    - -0.05047335056624294
    - -0.005742693476946906
    - 0.23519999999999996
  - accelerations:
    - 0.0
    - 0.0
    - 1.2735655701742283e-15
    - 6.345793844466743e-16
    - 0.0
    - 0.0
    effort: []
    positions:
    - 1.3188002857618961
    - -0.6035158499546414
    - -2.2283692932753767
    - 1.3331701203136546
    - 1.5976996532744536
    - -3.196296917740091
    time_from_start:
      nsecs: 771410859
      secs: 1
    velocities:
    - -0.030225965170044295
    - 0.010508399403279923
    - 0.0017411710777550245
    - -0.05047335056624284
    - -0.0057426934769471034
    - 0.23519999999999996
  - accelerations:
    - 0.1023792928166239
    - -0.035593321619011666
    - -0.005897573910725695
    - 0.17095983231591522
    - 0.01945125304435802
    - -0.7966531270384128
    effort: []
    positions:
    - 1.3009527514544041
    - -0.5973109523504868
    - -2.2273411834906063
    - 1.3033671065545487
    - 1.5943087634130175
    - -3.0574183064035596
    time_from_start:
      nsecs: 361881145
      secs: 2
    velocities:
    - 0.0
    - 0.0
    - 0.0
    - 0.0
    - 0.0
    - 0.0
multi_dof_joint_trajectory:
  header:
    frame_id: ''
    seq: 0
    stamp:
      nsecs: 0
      secs: 0
  joint_names: []
  points: []
---
joint_trajectory:
  header:
    frame_id: base
    seq: 0
    stamp:
      nsecs: 0
      secs: 0
  joint_names:
  - joint_1
  - joint_2
  - joint_3
  - joint_4
  - joint_5
  - joint_6
  points:
  - accelerations:
    - -0.06571462187464208
    - 0.0
    - 0.0
    - 0.0
    - 0.0
    - 0.0
    effort: []
    positions:
    - 1.3010676431661452
    - -0.5973197351035998
    - -2.227335310319989
    - 1.303535994022485
    - 1.594319362913294
    - -3.0581771219263314
    time_from_start:
      nsecs: 0
      secs: 0
    velocities:
    - 0.0
    - 0.0
    - 0.0
    - 0.0
    - 0.0
    - 0.0
  - accelerations:
    - 0.06571462187464208
    - -0.34753861844611306
    - 0.2985509106684293
    - 0.9700795617711048
    - 0.25788288189197783
    - -0.0880307859634527
    effort: []
    positions:
    - 1.2950402639793839
    - -0.5654433128453412
    - -2.25471855462419
    - 1.2145597936986732
    - 1.5706662112919874
    - -3.0501028925999796
    time_from_start:
      nsecs: 428300171
      secs: 0
    velocities:
    - 0.0
    - 0.0
    - 0.0
    - 0.0
    - 0.0
    - 0.0
multi_dof_joint_trajectory:
  header:
    frame_id: ''
    seq: 0
    stamp:
      nsecs: 0
      secs: 0
  joint_names: []
  points: []
---
joint_trajectory:
  header:
    frame_id: base
    seq: 0
    stamp:
      nsecs: 0
      secs: 0
  joint_names:
  - joint_1
  - joint_2
  - joint_3
  - joint_4
  - joint_5
  - joint_6
  points:
  - accelerations:
    - 0.06607643904682453
    - 0.0
    - 0.0
    - 0.0
    - 0.0
    - 0.0
    effort: []
    positions:
    - 1.2950960370538607
    - -0.565607811528345
    - -2.254570659839902
    - 1.2152468775641783
    - 1.5708417336914824
    - -3.050167664947918
    time_from_start:
      nsecs: 0
      secs: 0
    velocities:
    - 0.0
    - 0.0
    - 0.0
    - 0.0
    - 0.0
    - 0.0
  - accelerations:
    - -1.2918754269009698e-15
    - 0.0
    - 2.57538920055339e-15
    - 0.0
    - -1.287694600276695e-15
    - 0.0
    effort: []
    positions:
    - 1.3007839485488
    - -0.5961397809424616
    - -2.2259286907902425
    - 1.3010768993987956
    - 1.5935348882108418
    - -3.0575823179145036
    time_from_start:
      nsecs: 414923562
      secs: 0
    velocities:
    - 0.013708335734126786
    - -0.07358456398718526
    - 0.06902950725737372
    - 0.20685743025770223
    - 0.0546923736936802
    - -0.017869925069760574
  - accelerations:
    - -0.06607643904682195
    - 0.35468973414343
    - -0.3327336094759486
    - -0.9970869292162271
    - -0.2636262611879139
    - 0.0861359859828782
    effort: []
    positions:
    - 1.306471860043739
    - -0.6266717503565781
    - -2.1972867217405825
    - 1.3869069212334129
    - 1.616228042730201
    - -3.064996970881089
    time_from_start:
      nsecs: 829847124
      secs: 0
    velocities:
    - 0.0
    - 0.0
    - 0.0
    - 0.0
    - 0.0
    - 0.0
multi_dof_joint_trajectory:
  header:
    frame_id: ''
    seq: 0
    stamp:
      nsecs: 0
      secs: 0
  joint_names: []
  points: []
---
joint_trajectory:
  header:
    frame_id: base
    seq: 0
    stamp:
      nsecs: 0
      secs: 0
  joint_names:
  - joint_1
  - joint_2
  - joint_3
  - joint_4
  - joint_5
  - joint_6
  points:
  - accelerations:
    - 0.02602384346617159
    - 0.0
    - 0.0
    - 0.0
    - 0.0
    - 0.0
    effort: []
    positions:
    - 1.306436842239854
    - -0.6263833447118525
    - -2.1975804772508063
    - 1.3860158240369478
    - 1.6160118752564254
    - -3.0649037342076535
    time_from_start:
      nsecs: 0
      secs: 0
    velocities:
    - 0.0
    - 0.0
    - 0.0
    - 0.0
    - 0.0
    - 0.0
  - accelerations:
    - -3.5738597454371104e-17
    - -2.705922378688098e-16
    - 1.077263437553186e-15
    - -5.360789618155665e-16
    - 4.926820934781159e-16
    - 0.0
    effort: []
    positions:
    - 1.312445576752037
    - -0.6214374886154838
    - -2.216860372163876
    - 1.3953461330341128
    - 1.6141037053264164
    - -3.2247336623123948
    time_from_start:
      nsecs: 679549014
      secs: 0
    velocities:
    - 0.008842238584624235
    - 0.007278144760871058
    - -0.028371603099153674
    - 0.013730148678381885
    - -0.0028079945530850203
    - -0.23520000000000002
  - accelerations:
    - -4.467324681796388e-16
    - 2.705922378688098e-16
    - -1.077263437553186e-15
    - 5.360789618155665e-16
    - -4.926820934781159e-16
    - 0.0
    effort: []
    positions:
    - 1.3184543112642202
    - -0.6164916325191151
    - -2.2361402670769457
    - 1.4046764420312776
    - 1.6121955353964077
    - -3.3845635904171365
    time_from_start:
      nsecs: 359098028
      secs: 1
    velocities:
    - 0.00884223858462407
    - 0.007278144760871058
    - -0.028371603099153674
    - 0.013730148678381885
    - -0.0028079945530850203
    - -0.23520000000000002
  - accelerations:
    - 4.467324681796388e-16
    - -2.705922378688098e-16
    - 1.1742682020721934e-16
    - -5.360789618155665e-16
    - 1.1487406324619283e-17
    - 0.0
    effort: []
    positions:
    - 1.324463045776403
    - -0.6115457764227463
    - -2.2554201619900156
    - 1.4140067510284426
    - 1.6102873654663987
    - -3.544393518521878
    time_from_start:
      nsecs: 38647042
      secs: 2
    velocities:
    - 0.00884223858462407
    - 0.007278144760871058
    - -0.028371603099154
    - 0.013730148678381885
    - -0.002807994553085184
    - -0.23520000000000002
  - accelerations:
    - 3.5738597454371104e-17
    - 2.705922378688098e-16
    - 8.475153110608005e-16
    - 5.360789618155665e-16
    - 4.697072808288773e-16
    - 0.0
    effort: []
    positions:
    - 1.3304717802885861
    - -0.6065999203263777
    - -2.2747000569030855
    - 1.4233370600256074
    - 1.6083791955363897
    - -3.7042234466266195
    time_from_start:
      nsecs: 718196056
      secs: 2
    velocities:
    - 0.008842238584624235
    - 0.007278144760871058
    - -0.02837160309915367
    - 0.013730148678381885
    - -0.0028079945530850203
    - -0.23520000000000002
  - accelerations:
    - -3.5738597454371104e-17
    - -2.705922378688098e-16
    - -8.475153110608005e-16
    - -5.360789618155665e-16
    - -4.697072808288773e-16
    - 0.0
    effort: []
    positions:
    - 1.3364805148007692
    - -0.6016540642300089
    - -2.293979951816155
    - 1.4326673690227725
    - 1.606471025606381
    - -3.864053374731361
    time_from_start:
      nsecs: 397745070
      secs: 3
    velocities:
    - 0.008842238584624235
    - 0.007278144760871058
    - -0.02837160309915367
    - 0.013730148678381885
    - -0.0028079945530850203
    - -0.23520000000000002
  - accelerations:
    - -4.824710656340092e-16
    - 2.412355328170046e-16
    - 0.0
    - 4.799183086729826e-16
    - 0.0
    - 0.0
    effort: []
    positions:
    - 1.3424892493129523
    - -0.5967082081336402
    - -2.313259846729225
    - 1.4419976780199373
    - 1.604562855676372
    - -4.0238833028361025
    time_from_start:
      nsecs: 77294084
      secs: 4
    velocities:
    - 0.00884223858462406
    - 0.007278144760871049
    - -0.028371603099153958
    - 0.013730148678381866
    - -0.00280799455308518
    - -0.23520000000000002
  - accelerations:
    - 5.539482605427528e-16
    - -1.8124574423288226e-16
    - 7.300884908535821e-16
    - -3.675970023878175e-16
    - 4.582198745042587e-16
    - 0.0
    effort: []
    positions:
    - 1.3484979838251352
    - -0.5917623520372715
    - -2.332539741642295
    - 1.4513279870171023
    - 1.602654685746363
    - -4.183713230940844
    time_from_start:
      nsecs: 756843098
      secs: 4
    velocities:
    - 0.008842238584624084
    - 0.007278144760871069
    - -0.028371603099153708
    - 0.013730148678381904
    - -0.0028079945530850242
    - -0.23520000000000002
  - accelerations:
    - -7.14771949087423e-17
    - 1.8124574423288226e-16
    - -7.300884908535821e-16
    - 3.675970023878175e-16
    - -4.582198745042587e-16
    - 0.0
    effort: []
    positions:
    - 1.3545067183373183
    - -0.5868164959409028
    - -2.3518196365553643
    - 1.460658296014267
    - 1.6007465158163543
    - -4.343543159045585
    time_from_start:
      nsecs: 436392112
      secs: 5
    velocities:
    - 0.008842238584624247
    - 0.007278144760871069
    - -0.028371603099153708
    - 0.013730148678381904
    - -0.0028079945530850242
    - -0.23520000000000002
  - accelerations:
    - -0.026023843466171443
    - -0.021420514518846297
    - 0.0835012707325749
    - -0.040409590462171366
    - 0.008264288506127919
    - 0.692223798833816
    effort: []
    positions:
    - 1.3605154528495014
    - -0.581870639844534
    - -2.371099531468434
    - 1.4699886050114321
    - 1.5988383458863453
    - -4.503373087150327
    time_from_start:
      nsecs: 115941126
      secs: 6
    velocities:
    - 0.0
    - 0.0
    - 0.0
    - 0.0
    - 0.0
    - 0.0
multi_dof_joint_trajectory:
  header:
    frame_id: ''
    seq: 0
    stamp:
      nsecs: 0
      secs: 0
  joint_names: []
  points: []
---
joint_trajectory:
  header:
    frame_id: base
    seq: 0
    stamp:
      nsecs: 0
      secs: 0
  joint_names:
  - joint_1
  - joint_2
  - joint_3
  - joint_4
  - joint_5
  - joint_6
  points:
  - accelerations:
    - -0.052311812335583074
    - 0.0
    - 0.0
    - 0.0
    - 0.0
    - 0.0
    effort: []
    positions:
    - 1.360513926070567
    - -0.5818454375896944
    - -2.371095941755774
    - 1.4699626563378805
    - 1.5988306246418338
    - -4.50294414382319
    time_from_start:
      nsecs: 0
      secs: 0
    velocities:
    - 0.0
    - 0.0
    - 0.0
    - 0.0
    - 0.0
    - 0.0
  - accelerations:
    - 0.052311812335583074
    - -0.4495920592637496
    - 0.26397080238122667
    - 0.9676551462995181
    - 0.1727402394825985
    - -0.06246414020580768
    effort: []
    positions:
    - 1.3548528865573874
    - -0.5331918295675423
    - -2.3996621312240247
    - 1.3652456952203444
    - 1.580137154131696
    - -4.496184447493164
    time_from_start:
      nsecs: 465225175
      secs: 0
    velocities:
    - 0.0
    - 0.0
    - 0.0
    - 0.0
    - 0.0
    - 0.0
multi_dof_joint_trajectory:
  header:
    frame_id: ''
    seq: 0
    stamp:
      nsecs: 0
      secs: 0
  joint_names: []
  points: []
---
joint_trajectory:
  header:
    frame_id: base
    seq: 0
    stamp:
      nsecs: 0
      secs: 0
  joint_names:
  - joint_1
  - joint_2
  - joint_3
  - joint_4
  - joint_5
  - joint_6
  points:
  - accelerations:
    - 0.056122697407985575
    - 0.0
    - 0.0
    - 0.0
    - 0.0
    - 0.0
    effort: []
    positions:
    - 1.3549005151248978
    - -0.5335324663328354
    - -2.3994447589274497
    - 1.3662056339522843
    - 1.5803119345278043
    - -4.496233510508408
    time_from_start:
      nsecs: 0
      secs: 0
    velocities:
    - 0.0
    - 0.0
    - 0.0
    - 0.0
    - 0.0
    - 0.0
  - accelerations:
    - 6.189113297680226e-17
    - -1.0212036941172373e-15
    - -1.8876795557924688e-15
    - 0.0
    - -9.128942114078333e-16
    - 4.332379308376158e-15
    effort: []
    positions:
    - 1.3605440621949125
    - -0.5802534573514044
    - -2.3684539360149213
    - 1.4669789627845544
    - 1.5986960853974508
    - -4.504150081524109
    time_from_start:
      nsecs: 448458031
      secs: 0
    velocities:
    - 0.012584337179966185
    - -0.10418141233972478
    - 0.06910529143772368
    - 0.2247107241314447
    - 0.040994139047802206
    - -0.017652869327528516
  - accelerations:
    - -0.05612269740798582
    - 0.4646205673499517
    - -0.3081906742632616
    - -1.002148289131611
    - -0.1828226332764923
    - 0.0787269626904739
    effort: []
    positions:
    - 1.3661876092649272
    - -0.6269744483699736
    - -2.3374631131023933
    - 1.5677522916168243
    - 1.617080236267097
    - -4.51206665253981
    time_from_start:
      nsecs: 896916061
      secs: 0
    velocities:
    - 0.0
    - 0.0
    - 0.0
    - 0.0
    - 0.0
    - 0.0
multi_dof_joint_trajectory:
  header:
    frame_id: ''
    seq: 0
    stamp:
      nsecs: 0
      secs: 0
  joint_names: []
  points: []
---
joint_trajectory:
  header:
    frame_id: base
    seq: 0
    stamp:
      nsecs: 0
      secs: 0
  joint_names:
  - joint_1
  - joint_2
  - joint_3
  - joint_4
  - joint_5
  - joint_6
  points:
  - accelerations:
    - 0.020050952491651643
    - 0.0
    - 0.0
    - 0.0
    - 0.0
    - 0.0
    effort: []
    positions:
    - 1.366163556007061
    - -0.6267624456930253
    - -2.3376522311026684
    - 1.5672090488065598
    - 1.6169855269509583
    - -4.512027121037014
    time_from_start:
      nsecs: 0
      secs: 0
    velocities:
    - 0.0
    - 0.0
    - 0.0
    - 0.0
    - 0.0
    - 0.0
  - accelerations:
    - 3.3854176112281995e-16
    - -1.6927088056140997e-16
    - -6.781548569327374e-16
    - 0.0
    - 3.3880959479459433e-16
    - 0.0
    effort: []
    positions:
    - 1.3727349150958357
    - -0.6249377923816443
    - -2.3334138181563633
    - 1.5545114186700173
    - 1.6154376449670003
    - -4.321607186695524
    time_from_start:
      nsecs: 809608564
      secs: 0
    velocities:
    - 0.008116711430579725
    - 0.002253747541300881
    - 0.0052351384765376725
    - -0.015683665780279986
    - -0.0019118893401886042
    - 0.2352
  - accelerations:
    - -3.149723980066746e-16
    - 1.7569888868399535e-16
    - 6.931535425521036e-16
    - 2.9140303489052884e-16
    - -3.4416626823008235e-16
    - 0.0
    effort: []
    positions:
    - 1.3793062741846105
    - -0.6231131390702633
    - -2.3291754052100586
    - 1.5418137885334748
    - 1.6138897629830424
    - -4.131187252354034
    time_from_start:
      nsecs: 619217129
      secs: 1
    velocities:
    - 0.008116711430579734
    - 0.0022537475413008834
    - 0.005235138476537678
    - -0.015683665780279868
    - -0.0019118893401886064
    - 0.2352
  - accelerations:
    - 3.3854176112282074e-16
    - 0.0
    - 0.0
    - -3.3854176112282074e-16
    - 0.0
    - 0.0
    effort: []
    positions:
    - 1.385877633273385
    - -0.6212884857588823
    - -2.3249369922637535
    - 1.5291161583969326
    - 1.6123418809990844
    - -3.940767318012545
    time_from_start:
      nsecs: 428825693
      secs: 2
    velocities:
    - 0.008116711430579744
    - 0.0022537475413009545
    - 0.005235138476537959
    - -0.01568366578027989
    - -0.0019118893401887458
    - 0.2352
  - accelerations:
    - -3.6211112423896604e-16
    - -6.428008122585196e-18
    - -1.4998685619365456e-17
    - 4.7138726232291436e-17
    - 3.4416626823008235e-16
    - 0.0
    effort: []
    positions:
    - 1.39244899236216
    - -0.6194638324475013
    - -2.3206985793174484
    - 1.5164185282603901
    - 1.6107939990151263
    - -3.7503473836710555
    time_from_start:
      nsecs: 238434258
      secs: 3
    velocities:
    - 0.008116711430579734
    - 0.002253747541300952
    - 0.005235138476537953
    - -0.015683665780280007
    - -0.0019118893401886064
    - 0.2352
  - accelerations:
    - 3.3854176112281995e-16
    - 0.0
    - -6.781548569327374e-16
    - 0.0
    - -3.3880959479459433e-16
    - 0.0
    effort: []
    positions:
    - 1.3990203514509345
    - -0.6176391791361202
    - -2.3164601663711433
    - 1.5037208981238477
    - 1.6092461170311685
    - -3.5599274493295656
    time_from_start:
      nsecs: 48042822
      secs: 4
    velocities:
    - 0.008116711430579725
    - 0.0022537475413009493
    - 0.0052351384765376725
    - -0.015683665780279986
    - -0.0019118893401886042
    - 0.2352
  - accelerations:
    - -3.3854176112281995e-16
    - -1.6927088056140997e-16
    - 6.781548569327374e-16
    - 0.0
    - 3.3880959479459433e-16
    - 0.0
    effort: []
    positions:
    - 1.4055917105397093
    - -0.6158145258247392
    - -2.3122217534248386
    - 1.4910232679873052
    - 1.6076982350472104
    - -3.3695075149880758
    time_from_start:
      nsecs: 857651386
      secs: 4
    velocities:
    - 0.008116711430579725
    - 0.002253747541300881
    - 0.0052351384765376725
    - -0.015683665780279986
    - -0.0019118893401886042
    - 0.2352
  - accelerations:
    - 3.6211112423896604e-16
    - 1.7569888868399535e-16
    - 1.4998685619365456e-17
    - 2.9140303489052884e-16
    - -3.4416626823008235e-16
    - 0.0
    effort: []
    positions:
    - 1.412163069628484
    - -0.6139898725133582
    - -2.3079833404785335
    - 1.4783256378507628
    - 1.6061503530632526
    - -3.179087580646586
    time_from_start:
      nsecs: 667259951
      secs: 5
    velocities:
    - 0.008116711430579734
    - 0.0022537475413008834
    - 0.005235138476537953
    - -0.015683665780279868
    - -0.0019118893401886064
    - 0.2352
  - accelerations:
    - -3.6211112423896604e-16
    - -6.428008122585196e-18
    - -6.931535425521036e-16
    - -2.9140303489052884e-16
    - 5.356673435487663e-18
    - 0.0
    effort: []
    positions:
    - 1.4187344287172587
    - -0.6121652192019772
    - -2.3037449275322284
    - 1.4656280077142205
    - 1.6046024710792945
    - -2.9886676463050965
    time_from_start:
      nsecs: 476868515
      secs: 6
    velocities:
    - 0.008116711430579734
    - 0.002253747541300952
    - 0.005235138476537678
    - -0.015683665780279868
    - -0.0019118893401887437
    - 0.2352
  - accelerations:
    - 3.3854176112281995e-16
    - -1.6927088056140997e-16
    - 6.781548569327374e-16
    - 0.0
    - 3.3880959479459433e-16
    - 0.0
    effort: []
    positions:
    - 1.4253057878060333
    - -0.6103405658905962
    - -2.2995065145859237
    - 1.452930377577678
    - 1.6030545890953365
    - -2.7982477119636067
    time_from_start:
      nsecs: 286477079
      secs: 7
    velocities:
    - 0.008116711430579725
    - 0.002253747541300881
    - 0.0052351384765376725
    - -0.015683665780279986
    - -0.0019118893401886042
    - 0.2352
  - accelerations:
    - -3.149723980066746e-16
    - 1.7569888868399535e-16
    - 1.4998685619365456e-17
    - -4.7138726232291436e-17
    - -3.4416626823008235e-16
    - 0.0
    effort: []
    positions:
    - 1.4318771468948082
    - -0.6085159125792152
    - -2.2952681016396186
    - 1.4402327474411356
    - 1.6015067071113787
    - -2.607827777622117
    time_from_start:
      nsecs: 96085644
      secs: 8
    velocities:
    - 0.008116711430579734
    - 0.0022537475413008834
    - 0.005235138476537953
    - -0.015683665780280007
    - -0.0019118893401886064
    - 0.2352
  - accelerations:
    - 3.149723980066746e-16
    - -6.428008122585196e-18
    - -1.4998685619365456e-17
    - 4.7138726232291436e-17
    - 3.4416626823008235e-16
    - 0.0
    effort: []
    positions:
    - 1.4384485059835828
    - -0.6066912592678342
    - -2.2910296886933135
    - 1.4275351173045931
    - 1.5999588251274206
    - -2.4174078432806274
    time_from_start:
      nsecs: 905694208
      secs: 8
    velocities:
    - 0.008116711430579734
    - 0.002253747541300952
    - 0.005235138476537953
    - -0.015683665780280007
    - -0.0019118893401886064
    - 0.2352
  - accelerations:
    - -3.149723980066746e-16
    - 6.428008122585196e-18
    - -6.631561713133727e-16
    - 2.9140303489052884e-16
    - -3.4416626823008235e-16
    - 0.0
    effort: []
    positions:
    - 1.4450198650723576
    - -0.6048666059564531
    - -2.2867912757470084
    - 1.4148374871680507
    - 1.5984109431434628
    - -2.2269879089391376
    time_from_start:
      nsecs: 715302773
      secs: 9
    velocities:
    - 0.008116711430579734
    - 0.002253747541300952
    - 0.005235138476537678
    - -0.015683665780279868
    - -0.0019118893401886064
    - 0.2352
  - accelerations:
    - -4.713872623229138e-17
    - -1.2856016245170376e-17
    - 6.47086151006909e-16
    - -2.485496474066273e-16
    - 1.0981180542749697e-17
    - 0.0
    effort: []
    positions:
    - 1.4515912241611322
    - -0.6030419526450721
    - -2.2825528628007037
    - 1.4021398570315085
    - 1.5968630611595047
    - -2.036567974597648
    time_from_start:
      nsecs: 524911337
      secs: 10
    velocities:
    - 0.008116711430579588
    - 0.0022537475413009493
    - 0.005235138476537672
    - -0.01568366578027985
    - -0.0019118893401887413
    - 0.2352
  - accelerations:
    - 3.856804873551113e-16
    - -1.564148643162396e-16
    - 3.106870592582841e-17
    - -8.999211371619264e-17
    - 3.278284142518446e-16
    - 0.0
    effort: []
    positions:
    - 1.4581625832499068
    - -0.6012172993336911
    - -2.2783144498543986
    - 1.389442226894966
    - 1.5953151791755467
    - -1.8461480402561579
    time_from_start:
      nsecs: 334519901
      secs: 11
    velocities:
    - 0.008116711430579725
    - 0.002253747541300881
    - 0.0052351384765379465
    - -0.015683665780279986
    - -0.0019118893401886042
    - 0.2352
  - accelerations:
    - -3.3854176112282074e-16
    - 1.6927088056141037e-16
    - -6.78154856932739e-16
    - 0.0
    - -3.388095947945951e-16
    - 0.0
    effort: []
    positions:
    - 1.4647339423386816
    - -0.5993926460223101
    - -2.2740760369080935
    - 1.3767445967584235
    - 1.5937672971915888
    - -1.6557281059146685
    time_from_start:
      nsecs: 144128466
      secs: 12
    velocities:
    - 0.008116711430579744
    - 0.002253747541300886
    - 0.005235138476537685
    - -0.015683665780280024
    - -0.0019118893401886086
    - 0.2352
  - accelerations:
    - 2.9140303489052855e-16
    - -1.2856016245170376e-17
    - 6.47086151006909e-16
    - 8.999211371619264e-17
    - 1.0981180542749697e-17
    - 0.0
    effort: []
    positions:
    - 1.4713053014274562
    - -0.5975679927109291
    - -2.269837623961789
    - 1.364046966621881
    - 1.5922194152076308
    - -1.465308171573179
    time_from_start:
      nsecs: 953737030
      secs: 12
    velocities:
    - 0.008116711430579725
    - 0.0022537475413009493
    - 0.005235138476537672
    - -0.015683665780279986
    - -0.0019118893401887413
    - 0.2352
  - accelerations:
    - -2.9140303489052855e-16
    - -1.564148643162396e-16
    - 3.106870592582841e-17
    - 2.485496474066273e-16
    - 3.278284142518446e-16
    - 0.0
    effort: []
    positions:
    - 1.477876660516231
    - -0.595743339399548
    - -2.2655992110154837
    - 1.3513493364853386
    - 1.5906715332236727
    - -1.2748882372316888
    time_from_start:
      nsecs: 763345594
      secs: 13
    velocities:
    - 0.008116711430579725
    - 0.002253747541300881
    - 0.0052351384765379465
    - -0.01568366578027985
    - -0.0019118893401886042
    - 0.2352
  - accelerations:
    - 3.3854176112282074e-16
    - 1.6927088056141037e-16
    - -6.78154856932739e-16
    - -3.3854176112282074e-16
    - -3.388095947945951e-16
    - 0.0
    effort: []
    positions:
    - 1.4844480196050056
    - -0.5939186860881671
    - -2.2613607980691786
    - 1.3386517063487964
    - 1.5891236512397149
    - -1.0844683028901994
    time_from_start:
      nsecs: 572954159
      secs: 14
    velocities:
    - 0.008116711430579744
    - 0.002253747541300886
    - 0.005235138476537685
    - -0.01568366578027989
    - -0.0019118893401886086
    - 0.2352
  - accelerations:
    - -3.856804873551113e-16
    - -1.2856016245170376e-17
    - 6.47086151006909e-16
    - 8.999211371619264e-17
    - 1.0981180542749697e-17
    - 0.0
    effort: []
    positions:
    - 1.4910193786937804
    - -0.5920940327767861
    - -2.257122385122874
    - 1.325954076212254
    - 1.5875757692557568
    - -0.89404836854871
    time_from_start:
      nsecs: 382562723
      secs: 15
    velocities:
    - 0.008116711430579725
    - 0.0022537475413009493
    - 0.005235138476537672
    - -0.015683665780279986
    - -0.0019118893401887413
    - 0.2352
  - accelerations:
    - 3.856804873551113e-16
    - 1.2856016245170376e-17
    - 3.106870592582841e-17
    - 2.485496474066273e-16
    - 3.278284142518446e-16
    - 0.0
    effort: []
    positions:
    - 1.497590737782555
    - -0.590269379465405
    - -2.2528839721765688
    - 1.3132564460757115
    - 1.5860278872717988
    - -0.7036284342072197
    time_from_start:
      nsecs: 192171288
      secs: 16
    velocities:
    - 0.008116711430579725
    - 0.0022537475413009493
    - 0.0052351384765379465
