joint_trajectory:
  header:
    frame_id: base
    seq: 0
    stamp:
      nsecs: 0
      secs: 0
  joint_names:
  - joint_1
  - joint_2
  - joint_3
  - joint_4
  - joint_5
  - joint_6
  points:
  - accelerations:
    - -0.30331588055929
    - 0.0
    - 0.0
    - 0.0
    - 0.0
    - 0.0
    effort: []
    positions:
    - 1.3495417023794405
    - -0.5498219907459276
    - -2.455371408135223
    - 1.484177678130342
    - 1.5914697805469091
    - -2.813024088836831
    time_from_start:
      nsecs: 0
      secs: 0
    velocities:
    - 0.0
    - 0.0
    - 0.0
    - 0.0
    - 0.0
    - 0.0
  - accelerations:
    - 0.30331588055929
    - -0.19749386156462687
    - 0.8138026757832335
    - 0.4240013947491687
    - 0.7628061694828757
    - 0.49655030739679223
    effort: []
    positions:
    - 1.3492613616100404
    - -0.5496394563497703
    - -2.4561235681205433
    - 1.4837857933499885
    - 1.5907647542618968
    - -2.813483027204861
    time_from_start:
      nsecs: 42994267
      secs: 0
    velocities:
    - 0.0
    - 0.0
    - 0.0
    - 0.0
    - 0.0
    - 0.0
multi_dof_joint_trajectory:
  header:
    frame_id: ''
    seq: 0
    stamp:
      nsecs: 0
      secs: 0
  joint_names: []
  points: []
---
joint_trajectory:
  header:
    frame_id: base
    seq: 0
    stamp:
      nsecs: 0
      secs: 0
  joint_names:
  - joint_1
  - joint_2
  - joint_3
  - joint_4
  - joint_5
  - joint_6
  points:
  - accelerations:
    - -0.048712532740488194
    - 0.0
    - 0.0
    - 0.0
    - 0.0
    - 0.0
    effort: []
    positions:
    - 1.3494378390969275
    - -0.5496921949322998
    - -2.4558068349734508
    - 1.4842035107929157
    - 1.5912296965746386
    - -2.81459482124776
    time_from_start:
      nsecs: 0
      secs: 0
    velocities:
    - 0.0
    - 0.0
    - 0.0
    - 0.0
    - 0.0
    - 0.0
  - accelerations:
    - 0.0
    - 4.3447279005590206e-16
    - -3.594274899553371e-15
    - 0.0
    - 0.0
    - 0.0
    effort: []
    positions:
    - 1.3464309915763835
    - -0.5190078660189611
    - -2.468857765059102
    - 1.4241935154497387
    - 1.5813683190635301
    - -2.8106729085979714
    time_from_start:
      nsecs: 351358404
      secs: 0
    velocities:
    - -0.008557778867502855
    - 0.08733056789343499
    - -0.0371442093172849
    - -0.17079425094820477
    - -0.02806643419476194
    - 0.011162142730962712
  - accelerations:
    - 0.048712532740488194
    - -0.4971024857756952
    - 0.21143202465288688
    - 0.9721939150350226
    - 0.15975957264014248
    - -0.06353707564246572
    effort: []
    positions:
    - 1.3434241440558394
    - -0.4883235371056223
    - -2.481908695144754
    - 1.3641835201065617
    - 1.5715069415524217
    - -2.8067509959481827
    time_from_start:
      nsecs: 702716807
      secs: 0
    velocities:
    - 0.0
    - 0.0
    - 0.0
    - 0.0
    - 0.0
    - 0.0
multi_dof_joint_trajectory:
  header:
    frame_id: ''
    seq: 0
    stamp:
      nsecs: 0
      secs: 0
  joint_names: []
  points: []
---
joint_trajectory:
  header:
    frame_id: base
    seq: 0
    stamp:
      nsecs: 0
      secs: 0
  joint_names:
  - joint_1
  - joint_2
  - joint_3
  - joint_4
  - joint_5
  - joint_6
  points:
  - accelerations:
    - 0.05253531071596959
    - 0.0
    - 0.0
    - 0.0
    - 0.0
    - 0.0
    effort: []
    positions:
    - 1.3434816793189652
    - -0.48865181037838396
    - -2.4817169955349407
    - 1.3650048146167675
    - 1.571633757799672
    - -2.8068186571808376
    time_from_start:
      nsecs: 0
      secs: 0
    velocities:
    - 0.0
    - 0.0
    - 0.0
    - 0.0
    - 0.0
    - 0.0
  - accelerations:
    - 0.019998076448429727
    - -0.19280592663221058
    - 0.09505000857855535
    - 0.37547527724568086
    - 0.0610155945655981
    - -0.02536084971466872
    effort: []
    positions:
    - 1.3475476130512907
    - -0.5278523866391878
    - -2.4623917850761288
    - 1.441345036604823
    - 1.5840392191340096
    - -2.8119749298154195
    time_from_start:
      nsecs: 393431830
      secs: 0
    velocities:
    - 0.01351854376884902
    - -0.13033530323739712
    - 0.0642530647641078
    - 0.2538183601135516
    - 0.041246066232638164
    - -0.017143736687229905
  - accelerations:
    - -0.019998076448429727
    - 0.19280592663221013
    - -0.09505000857855535
    - -0.37547527724568086
    - -0.0610155945655981
    - 0.02536084971466872
    effort: []
    positions:
    - 1.351613546783616
    - -0.5670529628999916
    - -2.443066574617317
    - 1.5176852585928788
    - 1.5964446804683472
    - -2.817131202450001
    time_from_start:
      nsecs: 636863661
      secs: 0
    velocities:
    - 0.01351854376884902
    - -0.13033530323739717
    - 0.0642530647641078
    - 0.2538183601135516
    - 0.041246066232638164
    - -0.017143736687229905
  - accelerations:
    - -0.05253531071596959
    - 0.5065046775685014
    - -0.2496981020702797
    - -0.9863803854901542
    - -0.16028907716644714
    - 0.06662341366766088
    effort: []
    positions:
    - 1.3556794805159413
    - -0.6062535391607955
    - -2.423741364158505
    - 1.5940254805809344
    - 1.6088501418026848
    - -2.822287475084583
    time_from_start:
      nsecs: 30295491
      secs: 1
    velocities:
    - 0.0
    - 0.0
    - 0.0
    - 0.0
    - 0.0
    - 0.0
multi_dof_joint_trajectory:
  header:
    frame_id: ''
    seq: 0
    stamp:
      nsecs: 0
      secs: 0
  joint_names: []
  points: []
---
joint_trajectory:
  header:
    frame_id: base
    seq: 0
    stamp:
      nsecs: 0
      secs: 0
  joint_names:
  - joint_1
  - joint_2
  - joint_3
  - joint_4
  - joint_5
  - joint_6
  points:
  - accelerations:
    - 0.04981318061219552
    - 0.0
    - 0.0
    - 0.0
    - 0.0
    - 0.0
    effort: []
    positions:
    - 1.3556741634215659
    - -0.6059553012542908
    - -2.42389976826932
    - 1.59332853382973
    - 1.608722670194824
    - -2.822231169357453
    time_from_start:
      nsecs: 0
      secs: 0
    velocities:
    - 0.0
    - 0.0
    - 0.0
    - 0.0
    - 0.0
    - 0.0
  - accelerations:
    - 0.0008519343977626542
    - 8.390427310655077e-06
    - 0.0008152821143898398
    - -0.0011184203114494873
    - -0.00010995812215141421
    - 0.01689106898792935
    effort: []
    positions:
    - 1.3650755121358062
    - -0.6058627104007942
    - -2.4149028883710595
    - 1.5809864340335
    - 1.6075092497096035
    - -2.635833214152255
    time_from_start:
      nsecs: 614381235
      secs: 0
    velocities:
    - 0.015559588286293786
    - 0.00015324137028337523
    - 0.014890177072798714
    - -0.02042664273550519
    - -0.0020082568727174295
    - 0.30849567743474793
  - accelerations:
    - -5.661961291618527e-16
    - 3.1488275385491243e-16
    - 6.128927171339642e-17
    - -8.755610244770918e-17
    - -8.025976057706676e-18
    - 0.0
    effort: []
    positions:
    - 1.3744768608500468
    - -0.6057701195472978
    - -2.405906008472799
    - 1.5686443342372698
    - 1.606295829224383
    - -2.449435258947057
    time_from_start:
      nsecs: 208762469
      secs: 1
    velocities:
    - 0.01581703486789967
    - 0.00015577687869234983
    - 0.015136547678264872
    - -0.02076461885988476
    - -0.0020414851855335894
    - 0.3136
  - accelerations:
    - -6.42078084616534e-17
    - -3.1488275385491243e-16
    - -6.128927171339642e-17
    - 7.121229665747013e-16
    - 8.025976057706676e-18
    - 0.0
    effort: []
    positions:
    - 1.3838782095642872
    - -0.6056775286938012
    - -2.396909128574538
    - 1.5563022344410395
    - 1.6050824087391624
    - -2.2630373037418594
    time_from_start:
      nsecs: 803143704
      secs: 1
    velocities:
    - 0.015817034867899482
    - 0.00015577687869234983
    - 0.015136547678264872
    - -0.020764618859884575
    - -0.0020414851855335894
    - 0.3136
  - accelerations:
    - 0.0
    - 3.1428992607792236e-16
    - 0.0
    - 0.0
    - 0.0
    - 0.0
    effort: []
    positions:
    - 1.3932795582785276
    - -0.6055849378403048
    - -2.3879122486762774
    - 1.5439601346448095
    - 1.6038689882539419
    - -2.0766393485366614
    time_from_start:
      nsecs: 397524939
      secs: 2
    velocities:
    - 0.01581703486789946
    - 0.00015577687869234964
    - 0.015136547678264854
    - -0.020764618859884364
    - -0.0020414851855335868
    - 0.3136
  - accelerations:
    - 3.502244097908365e-17
    - -3.139251089843904e-16
    - 1.2899932427295809e-15
    - -6.712634520991032e-16
    - -4.377805122385456e-18
    - 0.0
    effort: []
    positions:
    - 1.402680906992768
    - -0.6054923469868082
    - -2.3789153687780167
    - 1.5316180348485795
    - 1.6026555677687213
    - -1.8902413933314635
    time_from_start:
      nsecs: 991906174
      secs: 2
    velocities:
    - 0.01581703486789947
    - 0.00015577687869234975
    - 0.015136547678265238
    - -0.020764618859884565
    - -0.002041485185533588
    - 0.3136
  - accelerations:
    - 5.95381496644422e-16
    - 3.139251089843904e-16
    - -1.2899932427295809e-15
    - 4.669658797211153e-17
    - 4.377805122385456e-18
    - 0.0
    effort: []
    positions:
    - 1.4120822557070083
    - -0.6053997561333118
    - -2.3699184888797555
    - 1.5192759350523493
    - 1.6014421472835008
    - -1.7038434381262657
    time_from_start:
      nsecs: 586287408
      secs: 3
    velocities:
    - 0.01581703486789966
    - 0.00015577687869234975
    - 0.015136547678265238
    - -0.02076461885988475
    - -0.002041485185533588
    - 0.3136
  - accelerations:
    - -5.95381496644422e-16
    - 3.1921495684060617e-19
    - 3.210390423082668e-17
    - 5.837073496513941e-16
    - -4.377805122385456e-18
    - 0.0
    effort: []
    positions:
    - 1.4214836044212489
    - -0.6053071652798152
    - -2.360921608981495
    - 1.506933835256119
    - 1.6002287267982802
    - -1.5174454829210677
    time_from_start:
      nsecs: 180668643
      secs: 4
    velocities:
    - 0.01581703486789966
    - 0.00015577687869244313
    - 0.015136547678264865
    - -0.02076461885988456
    - -0.002041485185533588
    - 0.3136
  - accelerations:
    - -3.502244097908365e-17
    - -3.146091410347631e-16
    - -3.210390423082668e-17
    - 4.085951447559759e-17
    - 4.377805122385456e-18
    - 0.0
    effort: []
    positions:
    - 1.4308849531354892
    - -0.6052145744263187
    - -2.351924729083234
    - 1.494591735459889
    - 1.5990153063130597
    - -1.33104752771587
    time_from_start:
      nsecs: 775049878
      secs: 4
    velocities:
    - 0.01581703486789947
    - 0.00015577687869234972
    - 0.015136547678264865
    - -0.020764618859884378
    - -0.002041485185533588
    - 0.3136
  - accelerations:
    - 6.654263786025893e-16
    - 3.146091410347631e-16
    - 3.210390423082668e-17
    - -6.712634520991032e-16
    - -4.377805122385456e-18
    - 0.0
    effort: []
    positions:
    - 1.4402863018497296
    - -0.6051219835728222
    - -2.3429278491849734
    - 1.482249635663659
    - 1.597801885827839
    - -1.144649572510672
    time_from_start:
      nsecs: 369431112
      secs: 5
    velocities:
    - 0.01581703486789966
    - 0.00015577687869234972
    - 0.015136547678264865
    - -0.020764618859884565
    - -0.002041485185533588
    - 0.3136
  - accelerations:
    - -6.304039376235061e-16
    - -3.1424432394123124e-16
    - 0.0
    - 0.0
    - 0.0
    - 0.0
    effort: []
    positions:
    - 1.4496876505639702
    - -0.6050293927193257
    - -2.3339309692867127
    - 1.4699075358674287
    - 1.5965884653426186
    - -0.9582516173054743
    time_from_start:
      nsecs: 963812347
      secs: 5
    velocities:
    - 0.01581703486789967
    - 0.00015577687869234983
    - 0.015136547678264873
    - -0.020764618859884763
    - -0.0020414851855335894
    - 0.3136
  - accelerations:
    - -3.502244097908365e-17
    - 3.139251089843904e-16
    - -3.210390423082668e-17
    - 6.712634520991032e-16
    - 6.333224743717626e-16
    - 0.0
    effort: []
    positions:
    - 1.4590889992782106
    - -0.6049368018658292
    - -2.324934089388452
    - 1.4575654360711985
    - 1.595375044857398
    - -0.7718536621002765
    time_from_start:
      nsecs: 558193582
      secs: 6
    velocities:
    - 0.01581703486789947
    - 0.00015577687869234975
    - 0.015136547678264865
    - -0.020764618859884565
    - -0.002041485185533401
    - 0.3136
  - accelerations:
    - 6.42078084616534e-17
    - 5.928277769896976e-19
    - 6.128927171339642e-17
    - -8.171902895119524e-17
    - -6.369706453070843e-16
    - 0.0
    effort: []
    positions:
    - 1.468490347992451
    - -0.6048442110123327
    - -2.3159372094901913
    - 1.4452233362749685
    - 1.5941616243721777
    - -0.5854557068950785
    time_from_start:
      nsecs: 152574817
      secs: 7
    velocities:
    - 0.015817034867899482
    - 0.00015577687869244324
    - 0.015136547678264872
    - -0.020764618859884388
    - -0.002041485185533402
    - 0.3136
  - accelerations:
    - -1.2257854342679272e-16
    - -3.1547558163190177e-16
    - -1.1966000667853575e-16
    - -4.669658797211151e-16
    - 1.6051952115413333e-17
    - 0.0
    effort: []
    positions:
    - 1.4778916967066913
    - -0.6047516201588361
    - -2.3069403295919306
    - 1.4328812364787384
    - 1.5929482038869571
    - -0.399057751689881
    time_from_start:
      nsecs: 746956051
      secs: 7
    velocities:
    - 0.01581703486789946
    - 0.00015577687869234964
    - 0.015136547678264854
    - -0.02076461885988455
    - -0.0020414851855335868
    - 0.3136
  - accelerations:
    - 7.529824810502981e-16
    - 3.1547558163190177e-16
    - 1.1966000667853575e-16
    - -1.6343805790239028e-16
    - -1.6051952115413333e-17
    - 0.0
    effort: []
    positions:
    - 1.4872930454209317
    - -0.6046590293053397
    - -2.29794344969367
    - 1.4205391366825082
    - 1.5917347834017366
    - -0.21265979648468258
    time_from_start:
      nsecs: 341337286
      secs: 8
    velocities:
    - 0.01581703486789965
    - 0.00015577687869234964
    - 0.015136547678264854
    - -0.02076461885988474
    - -0.0020414851855335868
    - 0.3136
  - accelerations:
    - -6.946117460851595e-16
    - -3.1488275385491243e-16
    - -6.128927171339642e-17
    - 7.121229665747013e-16
    - 8.025976057706676e-18
    - 0.0
    effort: []
    positions:
    - 1.4966943941351722
    - -0.6045664384518431
    - -2.2889465697954092
    - 1.408197036886278
    - 1.590521362916516
    - -0.026261841279485054
    time_from_start:
      nsecs: 935718521
      secs: 8
    velocities:
    - 0.01581703486789967
    - 0.00015577687869234983
    - 0.015136547678264872
    - -0.020764618859884575
    - -0.0020414851855335894
    - 0.3136
  - accelerations:
    - 0.0
    - 3.1428992607792236e-16
    - 0.0
    - 0.0
    - 0.0
    - 0.0
    effort: []
    positions:
    - 1.5060957428494126
    - -0.6044738475983467
    - -2.2799496898971485
    - 1.395854937090048
    - 1.5893079424312955
    - 0.16013611392571292
    time_from_start:
      nsecs: 530099755
      secs: 9
    velocities:
    - 0.01581703486789946
    - 0.00015577687869234964
    - 0.015136547678264854
    - -0.020764618859884364
    - -0.0020414851855335868
    - 0.3136
  - accelerations:
    - 6.304039376235053e-16
    - 0.0
    - 0.0
    - -6.245668641269914e-16
    - 0.0
    - 0.0
    effort: []
    positions:
    - 1.515497091563653
    - -0.6043812567448501
    - -2.270952809998888
    - 1.383512837293818
    - 1.588094521946075
    - 0.3465340691309109
    time_from_start:
      nsecs: 124480990
      secs: 10
    velocities:
    - 0.01581703486789965
    - 0.00015577687869244305
    - 0.015136547678264854
    - -0.02076461885988455
    - -0.0020414851855335868
    - 0.3136
  - accelerations:
    - -5.661961291618527e-16
    - -3.1365149616424156e-16
    - 1.3191786102121516e-15
    - -8.755610244770918e-17
    - -8.025976057706676e-18
    - 0.0
    effort: []
    positions:
    - 1.5248984402778936
    - -0.6042886658913535
    - -2.261955930100627
    - 1.3711707374975877
    - 1.5868811014608544
    - 0.5329320243361089
    time_from_start:
      nsecs: 718862225
      secs: 10
    velocities:
    - 0.01581703486789967
    - 0.00015577687869234983
    - 0.015136547678265246
    - -0.02076461885988476
    - -0.0020414851855335894
    - 0.3136
  - accelerations:
    - -6.42078084616534e-17
    - 3.1365149616424156e-16
    - -1.3191786102121516e-15
    - 7.121229665747013e-16
    - 8.025976057706676e-18
    - 0.0
    effort: []
    positions:
    - 1.534299788992134
    - -0.6041960750378571
    - -2.252959050202366
    - 1.3588286377013574
    - 1.5856676809756338
    - 0.7193299795413064
    time_from_start:
      nsecs: 313243459
      secs: 11
    velocities:
    - 0.015817034867899482
    - 0.00015577687869234983
    - 0.015136547678265246
    - -0.020764618859884575
    - -0.0020414851855335894
    - 0.3136
  - accelerations:
    - 0.0
    - -3.1428992607792236e-16
    - 0.0
    - 0.0
    - 0.0
    - 0.0
    effort: []
    positions:
    - 1.5437011377063743
    - -0.6041034841843606
    - -2.2439621703041053
    - 1.3464865379051274
    - 1.5844542604904133
    - 0.9057279347465044
    time_from_start:
      nsecs: 907624694
      secs: 11
    velocities:
    - 0.01581703486789946
    - 0.00015577687869234964
    - 0.015136547678264854
    - -0.020764618859884364
    - -0.0020414851855335868
    - 0.3136
  - accelerations:
    - 6.42078084616534e-17
    - 3.1488275385491243e-16
    - 6.128927171339642e-17
    - -7.121229665747013e-16
    - -8.025976057706676e-18
    - 0.0
    effort: []
    positions:
    - 1.5531024864206147
    - -0.6040108933308641
    - -2.2349652904058446
    - 1.3341444381088974
    - 1.5832408400051927
    - 1.0921258899517023
    time_from_start:
      nsecs: 502005929
      secs: 12
    velocities:
    - 0.015817034867899482
    - 0.00015577687869234983
    - 0.015136547678264872
    - -0.020764618859884575
    - -0.0020414851855335894
    - 0.3136
  - accelerations:
    - 5.661961291618527e-16
    - -3.1488275385491243e-16
    - -6.128927171339642e-17
    - 8.755610244770918e-17
    - 8.025976057706676e-18
    - 0.0
    effort: []
    positions:
    - 1.562503835134855
    - -0.6039183024773676
    - -2.225968410507584
    - 1.3218023383126671
    - 1.5820274195199722
    - 1.2785238451568999
    time_from_start:
      nsecs: 96387164
      secs: 13
    velocities:
    - 0.01581703486789967
    - 0.00015577687869234983
    - 0.015136547678264872
    - -0.02076461885988476
    - -0.0020414851855335894
    - 0.3136
  - accelerations:
    - -0.0008519343977626231
    - -8.390427310654767e-06
    - -0.0008152821143898087
    - 0.0011184203114494476
    - 0.00010995812215141068
    - -0.01689106898792936
    effort: []
    positions:
    - 1.5719051838490956
    - -0.6038257116238711
    - -2.216971530609323
    - 1.309460238516437
    - 1.5808139990347516
    - 1.4649218003620978
    time_from_start:
      nsecs: 690768398
      secs: 13
    velocities:
    - 0.015559588286293797
    - 0.00015324137028337534
    - 0.014890177072798723
    - -0.0204266427355052
    - -0.0020082568727174304
    - 0.30849567743474793
  - accelerations:
    - -0.04981318061219565
    - -0.0004905939614041749
    - -0.04767009680637132
    - 0.06539479227614474
    - 0.006429325794210084
    - -0.9876322313538084
    effort: []
    positions:
    - 1.581306532563336
    - -0.6037331207703746
    - -2.2079746507110625
    - 1.2971181387202069
    - 1.579600578549531
    - 1.6513197555672956
    time_from_start:
      nsecs: 305149633
      secs: 14
    velocities:
    - 0.0
    - 0.0
    - 0.0
    - 0.0
    - 0.0
    - 0.0
multi_dof_joint_trajectory:
  header:
    frame_id: ''
    seq: 0
    stamp:
      nsecs: 0
      secs: 0
  joint_names: []
  points: []
---
joint_trajectory:
  header:
    frame_id: base
    seq: 0
    stamp:
      nsecs: 0
      secs: 0
  joint_names:
  - joint_1
  - joint_2
  - joint_3
  - joint_4
  - joint_5
  - joint_6
  points:
  - accelerations:
    - 0.005692246480074079
    - 0.0
    - 0.0
    - 0.0
    - 0.0
    - 0.0
    effort: []
    positions:
    - 1.5812769309487944
    - -0.6037275670024395
    - -2.2080004944899048
    - 1.297194341676734
    - 1.5795980741976086
    - 1.6502848942729822
    time_from_start:
      nsecs: 0
      secs: 0
    velocities:
    - 0.0
    - 0.0
    - 0.0
    - 0.0
    - 0.0
    - 0.0
  - accelerations:
    - -0.005692246480074079
    - -0.3690544088566362
    - 0.2756113785516201
    - 1.007894852315329
    - -0.016335135104868136
    - -0.013622954761054212
    effort: []
    positions:
    - 1.5818211745623145
    - -0.5684417609916191
    - -2.23435208223567
    - 1.20082811115727
    - 1.5811598992148375
    - 1.6515874039503005
    time_from_start:
      nsecs: 437290276
      secs: 0
    velocities:
    - 0.0
    - 0.0
    - 0.0
    - 0.0
    - 0.0
    - 0.0
multi_dof_joint_trajectory:
  header:
    frame_id: ''
    seq: 0
    stamp:
      nsecs: 0
      secs: 0
  joint_names: []
  points: []
---
joint_trajectory:
  header:
    frame_id: base
    seq: 0
    stamp:
      nsecs: 0
      secs: 0
  joint_names:
  - joint_1
  - joint_2
  - joint_3
  - joint_4
  - joint_5
  - joint_6
  points:
  - accelerations:
    - -0.003349666181538062
    - 0.0
    - 0.0
    - 0.0
    - 0.0
    - 0.0
    effort: []
    positions:
    - 1.5818274063461137
    - -0.568749409508257
    - -2.2341410184856865
    - 1.2020120322109205
    - 1.5811363160432383
    - 1.6515913079457205
    time_from_start:
      nsecs: 0
      secs: 0
    velocities:
    - 0.0
    - 0.0
    - 0.0
    - 0.0
    - 0.0
    - 0.0
  - accelerations:
    - 0.0
    - 5.769942961460272e-16
    - 0.0
    - 0.0
    - 0.0
    - -1.1846664574300267e-15
    effort: []
    positions:
    - 1.581513489957967
    - -0.6023588716193731
    - -2.206365020597584
    - 1.2938759889148204
    - 1.579621825146731
    - 1.651621738251567
    time_from_start:
      nsecs: 432933535
      secs: 0
    velocities:
    - -0.0007250914112046836
    - -0.07763192121269666
    - 0.06415764919189304
    - 0.2121895145345108
    - -0.0034982064743044527
    - 7.028863175893073e-05
  - accelerations:
    - 0.003349666181538062
    - 0.35863205256004727
    - -0.29638567560470197
    - -0.9802406012951529
    - 0.01616047817136168
    - -0.00032470864929628985
    effort: []
    positions:
    - 1.5811995735698203
    - -0.635968333730489
    - -2.1785890227094815
    - 1.3857399456187203
    - 1.5781073342502239
    - 1.6516521685574133
    time_from_start:
      nsecs: 865867071
      secs: 0
    velocities:
    - 0.0
    - 0.0
    - 0.0
    - 0.0
    - 0.0
    - 0.0
multi_dof_joint_trajectory:
  header:
    frame_id: ''
    seq: 0
    stamp:
      nsecs: 0
      secs: 0
  joint_names: []
  points: []
---
joint_trajectory:
  header:
    frame_id: base
    seq: 0
    stamp:
      nsecs: 0
      secs: 0
  joint_names:
  - joint_1
  - joint_2
  - joint_3
  - joint_4
  - joint_5
  - joint_6
  points:
  - accelerations:
    - -0.6447912152254685
    - 0.0
    - 0.0
    - 0.0
    - 0.0
    - 0.0
    effort: []
    positions:
    - 1.5811886471586583
    - -0.635828911308091
    - -2.1786873466875116
    - 1.385269473141453
    - 1.5780987145038938
    - 1.6516534927571738
    time_from_start:
      nsecs: 0
      secs: 0
    velocities:
    - 0.0
    - 0.0
    - 0.0
    - 0.0
    - 0.0
    - 0.0
  - accelerations:
    - 3.5065752901438625e-15
    - 8.766438225359656e-16
    - 5.844292150239771e-16
    - -1.5584779067306056e-15
    - -6.69658475548307e-17
    - -3.0926045961685453e-15
    effort: []
    positions:
    - 1.5550111417201915
    - -0.6182260185806172
    - -2.199166041696689
    - 1.3460849659391827
    - 1.5804781365968867
    - 1.6647152554805276
    time_from_start:
      nsecs: 284950597
      secs: 0
    velocities:
    - -0.09186682084202137
    - 0.061775244256845004
    - -0.07186752801594333
    - -0.13751333607381072
    - 0.008350296923377559
    - 0.045838692262252984
  - accelerations:
    - 0.6447912152254599
    - -0.4335856455043575
    - 0.5044209683095251
    - 0.9651731742107073
    - -0.05860873437622257
    - -0.3217308035395114
    effort: []
    positions:
    - 1.528833636281725
    - -0.6006231258531433
    - -2.2196447367058667
    - 1.3069004587369122
    - 1.5828575586898797
    - 1.6777770182038811
    time_from_start:
      nsecs: 569901194
      secs: 0
    velocities:
    - 0.0
    - 0.0
    - 0.0
    - 0.0
    - 0.0
    - 0.0
multi_dof_joint_trajectory:
  header:
    frame_id: ''
    seq: 0
    stamp:
      nsecs: 0
      secs: 0
  joint_names: []
  points: []
---
joint_trajectory:
  header:
    frame_id: base
    seq: 0
    stamp:
      nsecs: 0
      secs: 0
  joint_names:
  - joint_1
  - joint_2
  - joint_3
  - joint_4
  - joint_5
  - joint_6
  points:
  - accelerations:
    - -0.017814291688772108
    - 0.0
    - 0.0
    - 0.0
    - 0.0
    - 0.0
    effort: []
    positions:
    - 1.5295471573028774
    - -0.6011207983484427
    - -2.2191237194148385
    - 1.3081057121369521
    - 1.582772029584765
    - 1.6773462062156588
    time_from_start:
      nsecs: 0
      secs: 0
    velocities:
    - 0.0
    - 0.0
    - 0.0
    - 0.0
    - 0.0
    - 0.0
  - accelerations:
    - 0.017814291688772108
    - -0.36612632914696225
    - 0.2829227765060374
    - 1.0041871402938132
    - 0.04239736582404581
    - -0.03107092619238428
    effort: []
    positions:
    - 1.5278220809526357
    - -0.5656663507259028
    - -2.246521013633552
    - 1.2108635923152875
    - 1.5786664106596127
    - 1.6803550106571157
    time_from_start:
      nsecs: 440083290
      secs: 0
    velocities:
    - 0.0
    - 0.0
    - 0.0
    - 0.0
    - 0.0
    - 0.0
multi_dof_joint_trajectory:
  header:
    frame_id: ''
    seq: 0
    stamp:
      nsecs: 0
      secs: 0
  joint_names: []
  points: []
---
joint_trajectory:
  header:
    frame_id: base
    seq: 0
    stamp:
      nsecs: 0
      secs: 0
  joint_names:
  - joint_1
  - joint_2
  - joint_3
  - joint_4
  - joint_5
  - joint_6
  points:
  - accelerations:
    - 0.008396306451976665
    - 0.0
    - 0.0
    - 0.0
    - 0.0
    - 0.0
    effort: []
    positions:
    - 1.5278334131414113
    - -0.5660440373149
    - -2.2462160571842147
    - 1.2121248538182783
    - 1.578728152627534
    - 1.6803321424298556
    time_from_start:
      nsecs: 0
      secs: 0
    velocities:
    - 0.0
    - 0.0
    - 0.0
    - 0.0
    - 0.0
    - 0.0
  - accelerations:
    - 0.0
    - -5.758348189388811e-16
    - 2.3673209223042885e-15
    - 0.0
    - 0.0
    - 1.1796616082428465e-15
    effort: []
    positions:
    - 1.5286234510631826
    - -0.5994655976041168
    - -2.217989864927432
    - 1.3042621872720404
    - 1.5817183949334328
    - 1.6784681635251495
    time_from_start:
      nsecs: 433805272
      secs: 0
    velocities:
    - 0.001821181004166664
    - -0.07704277105061365
    - 0.0650665034442317
    - 0.21239330016505906
    - 0.006893052010906384
    - -0.004296810165525785
  - accelerations:
    - -0.008396306451976665
    - 0.35519518058361604
    - -0.2999802333905592
    - -0.9792103214630843
    - -0.03177947548352942
    - 0.01980985680894974
    effort: []
    positions:
    - 1.529413488984954
    - -0.6328871578933336
    - -2.189763672670649
    - 1.3963995207258024
    - 1.5847086372393315
    - 1.6766041846204436
    time_from_start:
      nsecs: 867610545
      secs: 0
    velocities:
    - 0.0
    - 0.0
    - 0.0
    - 0.0
    - 0.0
    - 0.0
multi_dof_joint_trajectory:
  header:
    frame_id: ''
    seq: 0
    stamp:
      nsecs: 0
      secs: 0
  joint_names: []
  points: []
---
joint_trajectory:
  header:
    frame_id: base
    seq: 0
    stamp:
      nsecs: 0
      secs: 0
  joint_names:
  - joint_1
  - joint_2
  - joint_3
  - joint_4
  - joint_5
  - joint_6
  points:
  - accelerations:
    - -0.6745170154072598
    - 0.0
    - 0.0
    - 0.0
    - 0.0
    - 0.0
    effort: []
    positions:
    - 1.5294225213638615
    - -0.6327132791488074
    - -2.189872623265844
    - 1.3958041394654794
    - 1.5846933671532026
    - 1.6766074453292708
    time_from_start:
      nsecs: 0
      secs: 0
    velocities:
    - 0.0
    - 0.0
    - 0.0
    - 0.0
    - 0.0
    - 0.0
  - accelerations:
    - 2.722744631577358e-15
    - 0.0
    - -5.445489263154716e-15
    - 0.0
    - 0.0
    - -2.722744631577358e-15
    effort: []
    positions:
    - 1.5019457542470733
    - -0.6146150348096603
    - -2.2119151885971835
    - 1.3564689324506214
    - 1.5852523263752172
    - 1.7043091903625216
    time_from_start:
      nsecs: 285431145
      secs: 0
    velocities:
    - -0.09626408195338522
    - 0.06340669078246731
    - -0.07722550860877886
    - -0.13780979311129044
    - 0.0019582979368679976
    - 0.09705228576557369
  - accelerations:
    - 0.6745170154072544
    - -0.4442871209653362
    - 0.541114801316294
    - 0.9656254800033477
    - -0.013721683652413828
    - -0.6800399152484167
    effort: []
    positions:
    - 1.4744689871302854
    - -0.5965167904705132
    - -2.2339577539285234
    - 1.3171337254357633
    - 1.5858112855972317
    - 1.7320109353957722
    time_from_start:
      nsecs: 570862290
      secs: 0
    velocities:
    - 0.0
    - 0.0
    - 0.0
    - 0.0
    - 0.0
    - 0.0
multi_dof_joint_trajectory:
  header:
    frame_id: ''
    seq: 0
    stamp:
      nsecs: 0
      secs: 0
  joint_names: []
  points: []
---
joint_trajectory:
  header:
    frame_id: base
    seq: 0
    stamp:
      nsecs: 0
      secs: 0
  joint_names:
  - joint_1
  - joint_2
  - joint_3
  - joint_4
  - joint_5
  - joint_6
  points:
  - accelerations:
    - -0.03911715303686269
    - 0.0
    - 0.0
    - 0.0
    - 0.0
    - 0.0
    effort: []
    positions:
    - 1.4760413215259862
    - -0.5975793933098825
    - -2.2328097042567556
    - 1.3195684901008713
    - 1.5857968479508768
    - 1.7303565608717406
    time_from_start:
      nsecs: 0
      secs: 0
    velocities:
    - 0.0
    - 0.0
    - 0.0
    - 0.0
    - 0.0
    - 0.0
  - accelerations:
    - 0.03911715303686269
    - -0.3727742023650522
    - 0.29296132373730693
    - 1.004549216413597
    - 0.08615647557872812
    - -0.04950788755658422
    effort: []
    positions:
    - 1.4722580487168404
    - -0.5615259897702718
    - -2.261143888219025
    - 1.2224120397752343
    - 1.5774640980935017
    - 1.7351447888047542
    time_from_start:
      nsecs: 439810109
      secs: 0
    velocities:
    - 0.0
    - 0.0
    - 0.0
    - 0.0
    - 0.0
    - 0.0
multi_dof_joint_trajectory:
  header:
    frame_id: ''
    seq: 0
    stamp:
      nsecs: 0
      secs: 0
  joint_names: []
  points: []
---
joint_trajectory:
  header:
    frame_id: base
    seq: 0
    stamp:
      nsecs: 0
      secs: 0
  joint_names:
  - joint_1
  - joint_2
  - joint_3
  - joint_4
  - joint_5
  - joint_6
  points:
  - accelerations:
    - 0.023115766362168243
    - 0.0
    - 0.0
    - 0.0
    - 0.0
    - 0.0
    effort: []
    positions:
    - 1.4722559043525476
    - -0.5616198609540058
    - -2.2610344181216337
    - 1.2229062620173006
    - 1.5774948427267184
    - 1.735139065557305
    time_from_start:
      nsecs: 0
      secs: 0
    velocities:
    - 0.0
    - 0.0
    - 0.0
    - 0.0
    - 0.0
    - 0.0
  - accelerations:
    - 0.0
    - 5.807049850339216e-16
    - 0.0
    - 0.0
    - 0.0
    - 0.0
    effort: []
    positions:
    - 1.4743946182327015
    - -0.5951530890509846
    - -2.2326718854677563
    - 1.3139026652108
    - 1.5854896189468135
    - 1.7314080418157811
    time_from_start:
      nsecs: 430167102
      secs: 0
    velocities:
    - 0.0049718211134936645
    - -0.07795395775154569
    - 0.0659337557909136
    - 0.21153733692366394
    - 0.018585280423703388
    - -0.008673428823363534
  - accelerations:
    - -0.023115766362168243
    - 0.3624357017794698
    - -0.3065495035826088
    - -0.9835123882336585
    - -0.08640958518876006
    - 0.04032585840540877
    effort: []
    positions:
    - 1.4765333321128553
    - -0.6286863171479633
    - -2.204309352813879
    - 1.4048990684042992
    - 1.5934843951669087
    - 1.7276770180742573
    time_from_start:
      nsecs: 860334204
      secs: 0
    velocities:
    - 0.0
    - 0.0
    - 0.0
    - 0.0
    - 0.0
    - 0.0
multi_dof_joint_trajectory:
  header:
    frame_id: ''
    seq: 0
    stamp:
      nsecs: 0
      secs: 0
  joint_names: []
  points: []
---
joint_trajectory:
  header:
    frame_id: base
    seq: 0
    stamp:
      nsecs: 0
      secs: 0
  joint_names:
  - joint_1
  - joint_2
  - joint_3
  - joint_4
  - joint_5
  - joint_6
  points:
  - accelerations:
    - -0.11365365836016032
    - 0.0
    - 0.0
    - 0.0
    - 0.0
    - 0.0
    effort: []
    positions:
    - 1.476555444774426
    - -0.6285851131430755
    - -2.2043797938298875
    - 1.4045797878895085
    - 1.593449574501274
    - 1.7276815487148105
    time_from_start:
      nsecs: 0
      secs: 0
    velocities:
    - 0.0
    - 0.0
    - 0.0
    - 0.0
    - 0.0
    - 0.0
  - accelerations:
    - -0.00713084535570986
    - 0.002571295735095872
    - -0.003746029190980871
    - -0.0045601175281311905
    - -0.00020164983722510913
    - 0.06225624508153006
    effort: []
    positions:
    - 1.4584172505182438
    - -0.6220447018444472
    - -2.2139082861426433
    - 1.3929805603883785
    - 1.592936652998021
    - 1.8860380703640924
    time_from_start:
      nsecs: 564963398
      secs: 0
    velocities:
    - -0.034012449149220775
    - 0.012264473715941481
    - -0.017867675011027637
    - -0.0217506842180811
    - -0.0009618221252091852
    - 0.2969475937886107
  - accelerations:
    - -8.794483154752416e-16
    - 0.0
    - 0.0
    - 0.0
    - 0.0
    - 0.0
    effort: []
    positions:
    - 1.4402790562620618
    - -0.6155042905458188
    - -2.223436778455399
    - 1.3813813328872484
    - 1.5924237314947678
    - 2.0443945920133744
    time_from_start:
      nsecs: 69926796
      secs: 1
    velocities:
    - -0.035919819780687305
    - 0.012952248267945943
    - -0.01886966926375269
    - -0.022970432202410556
    - -0.0010157597662849602
    - 0.3136
  - accelerations:
    - -2.0612069893951008e-16
    - 7.214224462882852e-17
    - -1.0993103943440537e-16
    - -1.003120734838949e-15
    - -8.764423886157084e-16
    - 0.0
    effort: []
    positions:
    - 1.4221408620058795
    - -0.6089638792471904
    - -2.232965270768155
    - 1.3697821053861183
    - 1.5919108099915147
    - 2.2027511136626563
    time_from_start:
      nsecs: 574890194
      secs: 1
    velocities:
    - -0.035919819780687576
    - 0.01295224826794596
    - -0.018869669263752716
    - -0.02297043220241081
    - -0.0010157597662851813
    - 0.3136
  - accelerations:
    - 1.085569014414753e-15
    - -7.214224462882852e-17
    - 1.0993103943440537e-16
    - 1.003120734838949e-15
    - 8.764423886157084e-16
    - 0.0
    effort: []
    positions:
    - 1.4040026677496973
    - -0.602423467948562
    - -2.242493763080911
    - 1.358182877884988
    - 1.5913978884882614
    - 2.361107635311938
    time_from_start:
      nsecs: 79853592
      secs: 2
    velocities:
    - -0.035919819780687354
    - 0.01295224826794596
    - -0.018869669263752716
    - -0.02297043220241081
    - -0.0010157597662851813
    - 0.3136
  - accelerations:
    - 0.00713084535570986
    - -0.002571295735095872
    - 0.003746029190980871
    - 0.0045601175281311905
    - 0.00020164983722510913
    - -0.06225624508153006
    effort: []
    positions:
    - 1.3858644734935153
    - -0.5958830566499337
    - -2.252022255393667
    - 1.346583650383858
    - 1.5908849669850083
    - 2.5194641569612197
    time_from_start:
      nsecs: 584816991
      secs: 2
    velocities:
    - -0.034012449149220775
    - 0.012264473715941481
    - -0.017867675011027637
    - -0.0217506842180811
    - -0.0009618221252091852
    - 0.2969475937886107
  - accelerations:
    - 0.11365365836016032
    - -0.040982120974687425
    - 0.059705392648568494
    - 0.07268058887426924
    - 0.003213958593283829
    - -0.992259634913571
    effort: []
    positions:
    - 1.367726279237333
    - -0.5893426453513053
    - -2.2615507477064227
    - 1.334984422882728
    - 1.5903720454817551
    - 2.6778206786105017
    time_from_start:
      nsecs: 149780389
      secs: 3
    velocities:
    - 0.0
    - 0.0
    - 0.0
    - 0.0
    - 0.0
    - 0.0
multi_dof_joint_trajectory:
  header:
    frame_id: ''
    seq: 0
    stamp:
      nsecs: 0
      secs: 0
  joint_names: []
  points: []
---
joint_trajectory:
  header:
    frame_id: base
    seq: 0
    stamp:
      nsecs: 0
      secs: 0
  joint_names:
  - joint_1
  - joint_2
  - joint_3
  - joint_4
  - joint_5
  - joint_6
  points:
  - accelerations:
    - -0.04782909565055092
    - 0.0
    - 0.0
    - 0.0
    - 0.0
    - 0.0
    effort: []
    positions:
    - 1.3678096558768391
    - -0.5893697331965225
    - -2.261488487087492
    - 1.3350234796968736
    - 1.5903664329072893
    - 2.67717331215469
    time_from_start:
      nsecs: 0
      secs: 0
    velocities:
    - 0.0
    - 0.0
    - 0.0
    - 0.0
    - 0.0
    - 0.0
  - accelerations:
    - 0.04782909565055092
    - -0.37419005310544334
    - 0.2835907303241719
    - 0.9688650233592149
    - 0.17339930709672016
    - -0.06895840283231916
    effort: []
    positions:
    - 1.3631253678721822
    - -0.5527222918560009
    - -2.2892628080990187
    - 1.2401347358198829
    - 1.5733840441917788
    - 2.6839269631450366
    time_from_start:
      nsecs: 442578903
      secs: 0
    velocities:
    - 0.0
    - 0.0
    - 0.0
    - 0.0
    - 0.0
    - 0.0
multi_dof_joint_trajectory:
  header:
    frame_id: ''
    seq: 0
    stamp:
      nsecs: 0
      secs: 0
  joint_names: []
  points: []
---
joint_trajectory:
  header:
    frame_id: base
    seq: 0
    stamp:
      nsecs: 0
      secs: 0
  joint_names:
  - joint_1
  - joint_2
  - joint_3
  - joint_4
  - joint_5
  - joint_6
  points:
  - accelerations:
    - 0.04880179727836535
    - 0.0
    - 0.0
    - 0.0
    - 0.0
    - 0.0
    effort: []
    positions:
    - 1.3631829461150444
    - -0.5531193503600956
    - -2.288947808455081
    - 1.2414376021465081
    - 1.57363285967194
    - 2.6838298832993432
    time_from_start:
      nsecs: 0
      secs: 0
    velocities:
    - 0.0
    - 0.0
    - 0.0
    - 0.0
    - 0.0
    - 0.0
  - accelerations:
    - 0.0
    - -6.157624320466917e-16
    - -2.4306411791316773e-15
    - 0.0
    - 0.0
    - 0.0
    effort: []
    positions:
    - 1.3676572670361167
    - -0.5876502400762245
    - -2.260156090384628
    - 1.3318214485148483
    - 1.5902473098659977
    - 2.6772247682308037
    time_from_start:
      nsecs: 428213796
      secs: 0
    velocities:
    - 0.010448801427640323
    - -0.08063936765562013
    - 0.06723678300810593
    - 0.21107177594735757
    - 0.038799427660527894
    - -0.015424806797574433
  - accelerations:
    - -0.04880179727836535
    - 0.3766313390332924
    - -0.31403370776393613
    - -0.9858242681996995
    - -0.1812152155745669
    - 0.07204254953126968
    effort: []
    positions:
    - 1.372131587957189
    - -0.6221811297923534
    - -2.2313643723141756
    - 1.4222052948831885
    - 1.6068617600600554
    - 2.670619653162264
    time_from_start:
      nsecs: 856427592
      secs: 0
    velocities:
    - 0.0
    - 0.0
    - 0.0
    - 0.0
    - 0.0
    - 0.0
multi_dof_joint_trajectory:
  header:
    frame_id: ''
    seq: 0
    stamp:
      nsecs: 0
      secs: 0
  joint_names: []
  points: []
---
joint_trajectory:
  header:
    frame_id: base
    seq: 0
    stamp:
      nsecs: 0
      secs: 0
  joint_names:
  - joint_1
  - joint_2
  - joint_3
  - joint_4
  - joint_5
  - joint_6
  points:
  - accelerations:
    - -0.011922668672650943
    - 0.0
    - 0.0
    - 0.0
    - 0.0
    - 0.0
    effort: []
    positions:
    - 1.3721247757910944
    - -0.6219228827811061
    - -2.231534582726826
    - 1.4214561065592861
    - 1.6067105188332147
    - 2.670687982268129
    time_from_start:
      nsecs: 0
      secs: 0
    velocities:
    - 0.0
    - 0.0
    - 0.0
    - 0.0
    - 0.0
    - 0.0
  - accelerations:
    - 0.0
    - 2.6093749882973423e-16
    - 1.043583793090383e-15
    - 0.0
    - -5.218749976594685e-16
    - 0.0
    effort: []
    positions:
    - 1.3695879517763436
    - -0.6210466789244713
    - -2.2313691359237886
    - 1.417244276523639
    - 1.6062547521506054
    - 2.466114430968819
    time_from_start:
      nsecs: 652339130
      secs: 0
    velocities:
    - -0.0038888116570938063
    - 0.0013431723098879986
    - 0.00025362084738229967
    - -0.006456503740536936
    - -0.0006986652514878848
    - -0.3136
  - accelerations:
    - 0.0
    - -2.6093749882973423e-16
    - -1.043583793090383e-15
    - 0.0
    - 5.218749976594685e-16
    - 0.0
    effort: []
    positions:
    - 1.3670511277615929
    - -0.6201704750678364
    - -2.231203689120751
    - 1.413032446487992
    - 1.605798985467996
    - 2.261540879669509
    time_from_start:
      nsecs: 304678261
      secs: 1
    velocities:
    - -0.0038888116570938063
    - 0.0013431723098879986
    - 0.00025362084738229967
    - -0.006456503740536936
    - -0.0006986652514878848
    - -0.3136
  - accelerations:
    - 0.0
    - 0.0
    - 0.0
    - 0.0
    - -5.218749976594685e-16
    - 0.0
    effort: []
    positions:
    - 1.3645143037468421
    - -0.6192942712112016
    - -2.2310382423177137
    - 1.408820616452345
    - 1.6053432187853867
    - 2.056967328370199
    time_from_start:
      nsecs: 957017391
      secs: 1
    velocities:
    - -0.0038888116570938063
    - 0.0013431723098879134
    - 0.0002536208473819593
    - -0.006456503740536936
    - -0.0006986652514878848
    - -0.3136
  - accelerations:
    - 0.0
    - 2.6093749882973423e-16
    - 0.0
    - 0.0
    - 5.218749976594685e-16
    - 0.0
    effort: []
    positions:
    - 1.3619774797320914
    - -0.6184180673545668
    - -2.2308727955146765
    - 1.4046087864166978
    - 1.6048874521027772
    - 1.8523937770708887
    time_from_start:
      nsecs: 609356522
      secs: 2
    velocities:
    - -0.0038888116570938063
    - 0.0013431723098879986
    - 0.0002536208473819593
    - -0.006456503740536936
    - -0.0006986652514878848
    - -0.3136
  - accelerations:
    - 0.0
    - -2.6093749882973423e-16
    - 1.043583793090383e-15
    - 0.0
    - -5.218749976594685e-16
    - 0.0
    effort: []
    positions:
    - 1.3594406557173406
    - -0.6175418634979319
    - -2.2307073487116393
    - 1.4003969563810508
    - 1.604431685420168
    - 1.6478202257715786
    time_from_start:
      nsecs: 261695652
      secs: 3
    velocities:
    - -0.0038888116570938063
    - 0.0013431723098879986
    - 0.00025362084738229967
    - -0.006456503740536936
    - -0.0006986652514878848
    - -0.3136
  - accelerations:
    - 0.0
    - 0.0
    - -1.043583793090383e-15
    - 0.0
    - 5.218749976594685e-16
    - 0.0
    effort: []
    positions:
    - 1.3569038317025899
    - -0.6166656596412972
    - -2.2305419019086017
    - 1.3961851263454037
    - 1.6039759187375584
    - 1.4432466744722685
    time_from_start:
      nsecs: 914034783
      secs: 3
    velocities:
    - -0.0038888116570938063
    - 0.0013431723098879134
    - 0.00025362084738229967
    - -0.006456503740536936
    - -0.0006986652514878848
    - -0.3136
  - accelerations:
    - 0.0
    - 2.6093749882973423e-16
    - 0.0
    - 0.0
    - -5.218749976594685e-16
    - 0.0
    effort: []
    positions:
    - 1.3543670076878391
    - -0.6157894557846624
    - -2.2303764551055645
    - 1.3919732963097566
    - 1.6035201520549491
    - 1.2386731231729584
    time_from_start:
      nsecs: 566373913
      secs: 4
    velocities:
    - -0.0038888116570938063
    - 0.0013431723098879986
    - 0.0002536208473819593
    - -0.006456503740536936
    - -0.0006986652514878848
    - -0.3136
  - accelerations:
    - 5.983280227942947e-18
    - -2.6293192557238176e-16
    - 1.0431682875189974e-15
    - 9.307324799022362e-18
    - 5.22872211030792e-16
    - 0.0
    effort: []
    positions:
    - 1.3518301836730884
    - -0.6149132519280275
    - -2.2302110083025273
    - 1.3877614662741096
    - 1.6030643853723396
    - 1.0340995718736483
    time_from_start:
      nsecs: 218713043
      secs: 5
    velocities:
    - -0.0038888116570938045
    - 0.0013431723098879978
    - 0.0002536208473822995
    - -0.006456503740536933
    - -0.0006986652514878845
    - -0.3136
  - accelerations:
    - -1.3296178284317667e-17
    - 4.653662399511184e-18
    - -1.042752781947613e-15
    - -2.1273885254908268e-17
    - -5.240356266306701e-16
    - 0.0
    effort: []
    positions:
    - 1.3492933596583376
    - -0.6140370480713927
    - -2.2300455614994896
    - 1.3835496362384625
    - 1.6026086186897304
    - 0.829526020574338
    time_from_start:
      nsecs: 871052174
      secs: 5
    velocities:
    - -0.0038888116570938067
    - 0.0013431723098879136
    - 0.00025362084738229967
    - -0.006456503740536937
    - -0.0006986652514878848
    - -0.3136
  - accelerations:
    - 7.312898056374721e-18
    - 2.582782631728709e-16
    - -4.155055713849274e-19
    - 1.1966560455885908e-17
    - 5.230384132593466e-16
    - 0.0
    effort: []
    positions:
    - 1.3467565356435869
    - -0.6131608442147579
    - -2.2298801146964524
    - 1.3793378062028154
    - 1.6021528520071209
    - 0.6249524692750281
    time_from_start:
      nsecs: 523391304
      secs: 6
    velocities:
    - -0.003888811657093809
    - 0.0013431723098879995
    - 0.0002536208473819594
    - -0.00645650374053694
    - -0.0006986652514878852
    - -0.3136
  - accelerations:
    - 0.0
    - -2.6093749882973423e-16
    - 0.0
    - 0.0
    - -5.218749976594685e-16
    - 0.0
    effort: []
    positions:
    - 1.3442197116288361
    - -0.612284640358123
    - -2.229714667893415
    - 1.3751259761671684
    - 1.6016970853245116
    - 0.420378917975718
    time_from_start:
      nsecs: 175730435
      secs: 7
    velocities:
    - -0.0038888116570938063
    - 0.0013431723098879986
    - 0.0002536208473819593
    - -0.006456503740536936
    - -0.0006986652514878848
    - -0.3136
  - accelerations:
    - 0.0
    - 0.0
    - 1.043583793090383e-15
    - 0.0
    - 5.218749976594685e-16
    - 0.0
    effort: []
    positions:
    - 1.3416828876140854
    - -0.6114084365014882
    - -2.229549221090378
    - 1.3709141461315213
    - 1.6012413186419021
    - 0.21580536667640793
    time_from_start:
      nsecs: 828069565
      secs: 7
    velocities:
    - -0.0038888116570938063
    - 0.0013431723098879134
    - 0.00025362084738229967
    - -0.006456503740536936
    - -0.0006986652514878848
    - -0.3136
  - accelerations:
    - 0.0
    - 0.0
    - -1.043583793090383e-15
    - -5.225398065736844e-16
    - 0.0
    - 0.0
    effort: []
    positions:
    - 1.3391460635993346
    - -0.6105322326448535
    - -2.2293837742873404
    - 1.3667023160958742
    - 1.6007855519592928
    - 0.011231815377097831
    time_from_start:
      nsecs: 480408695
      secs: 8
    velocities:
    - -0.0038888116570938063
    - 0.0013431723098879134
    - 0.00025362084738229967
    - -0.006456503740537106
    - -0.0006986652514877146
    - -0.3136
  - accelerations:
    - 0.0
    - 2.6093749882973423e-16
    - 0.0
    - 5.225398065736844e-16
    - -5.218749976594685e-16
    - 0.0
    effort: []
    positions:
    - 1.3366092395845839
    - -0.6096560287882187
    - -2.229218327484303
    - 1.362490486060227
    - 1.6003297852766836
    - -0.19334173592221227
    time_from_start:
      nsecs: 132747826
      secs: 9
    velocities:
    - -0.0038888116570938063
    - 0.0013431723098879986
    - 0.0002536208473819593
    - -0.006456503740537106
    - -0.0006986652514878848
    - -0.3136
  - accelerations:
    - 0.0
    - -2.6093749882973423e-16
    - 1.043583793090383e-15
    - 0.0
    - 5.218749976594685e-16
    - 0.0
    effort: []
    positions:
    - 1.3340724155698331
    - -0.6087798249315838
    - -2.229052880681266
    - 1.3582786560245799
    - 1.599874018594074
    - -0.39791528722152236
    time_from_start:
      nsecs: 785086956
      secs: 9
    velocities:
    - -0.0038888116570938063
    - 0.0013431723098879986
    - 0.00025362084738229967
    - -0.006456503740536936
    - -0.0006986652514878848
    - -0.3136
  - accelerations:
    - -1.329617828431768e-17
    - 4.6536623995111885e-18
    - -1.042752781947614e-15
    - -2.2603503083340056e-17
    - -5.242018288592246e-16
    - 0.0
    effort: []
    positions:
    - 1.3315355915550824
    - -0.607903621074949
    - -2.2288874338782283
    - 1.3540668259889328
    - 1.5994182519114648
    - -0.6024888385208325
    time_from_start:
      nsecs: 437426087
      secs: 10
    velocities:
    - -0.0038888116570938106
    - 0.001343172309887915
    - 0.00025362084738229994
    - -0.006456503740536943
    - -0.0006986652514878855
    - -0.3136
  - accelerations:
    - 3.85589170245212e-17
    - 2.476413205454163e-16
    - -2.49303342830956e-18
    - 6.382165576472474e-17
    - 5.286892890301807e-16
    - 0.0
    effort: []
    positions:
    - 1.3289987675403316
    - -0.6070274172183142
    - -2.228721987075191
    - 1.3498549959532857
    - 1.5989624852288553
    - -0.8070623898201421
    time_from_start:
      nsecs: 89765217
      secs: 11
    velocities:
    - -0.0038888116570938024
    - 0.0013431723098879973
    - 0.000253620847381959
    - -0.00645650374053693
    - -0.0006986652514878841
    - -0.3136
  - accelerations:
    - -3.85589170245212e-17
    - -2.476413205454163e-16
    - 2.49303342830956e-18
    - -6.382165576472474e-17
    - -5.286892890301807e-16
    - 0.0
    effort: []
    positions:
    - 1.3264619435255809
    - -0.6061512133616793
    - -2.228556540272154
    - 1.3456431659176387
    - 1.598506718546246
    - -1.011635941119453
    time_from_start:
      nsecs: 742104348
      secs: 11
    velocities:
    - -0.0038888116570938024
    - 0.0013431723098879973
    - 0.000253620847381959
    - -0.00645650374053693
    - -0.0006986652514878841
    - -0.3136
  - accelerations:
    - 1.329617828431768e-17
    - -4.6536623995111885e-18
    - 1.042752781947614e-15
    - 2.2603503083340056e-17
    - 5.242018288592246e-16
    - 0.0
    effort: []
    positions:
    - 1.3239251195108301
    - -0.6052750095050445
    - -2.2283910934691167
    - 1.3414313358819916
    - 1.5980509518636365
    - -1.2162094924187627
    time_from_start:
      nsecs: 394443478
      secs: 12
    velocities:
    - -0.0038888116570938106
    - 0.001343172309887915
    - 0.00025362084738229994
    - -0.006456503740536943
    - -0.0006986652514878855
    - -0.3136
  - accelerations:
    - 0.0
    - 2.6093749882973423e-16
    - -1.043583793090383e-15
    - 0.0
    - -5.218749976594685e-16
    - 0.0
    effort: []
    positions:
    - 1.3213882954960794
    - -0.6043988056484098
    - -2.228225646666079
    - 1.3372195058463445
    - 1.5975951851810273
    - -1.4207830437180728
    time_from_start:
      nsecs: 46782608
      secs: 13
    velocities:
    - -0.0038888116570938063
    - 0.0013431723098879986
    - 0.00025362084738229967
    - -0.006456503740536936
    - -0.0006986652514878848
    - -0.3136
  - accelerations:
    - 0.0
    - -2.6093749882973423e-16
    - 0.0
    - 0.0
    - 5.218749976594685e-16
    - 0.0
    effort: []
    positions:
    - 1.3188514714813286
    - -0.6035226017917749
    - -2.228060199863042
    - 1.3330076758106975
    - 1.5971394184984178
    - -1.625356595017383
    time_from_start:
      nsecs: 699121739
      secs: 13
    velocities:
    - -0.0038888116570938063
    - 0.0013431723098879986
    - 0.0002536208473819593
    - -0.006456503740536936
    - -0.0006986652514878848
    - -0.3136
  - accelerations:
    - 0.0
    - 0.0
    - 1.043583793090383e-15
    - 0.0
    - -5.218749976594685e-16
    - 0.0
    effort: []
    positions:
    - 1.316314647466578
    - -0.6026463979351401
    - -2.2278947530600046
    - 1.3287958457750504
    - 1.5966836518158085
    - -1.829930146316693
    time_from_start:
      nsecs: 351460869
      secs: 14
    velocities:
    - -0.0038888116570938063
    - 0.0013431723098879134
    - 0.00025362084738229967
    - -0.006456503740536936
    - -0.0006986652514878848
    - -0.3136
  - accelerations:
    - 0.0
    - 2.6093749882973423e-16
    - -1.043583793090383e-15
    - 0.0
    - 5.218749976594685e-16
    - 0.0
    effort: []
    positions:
    - 1.3137778234518271
    - -0.6017701940785053
    - -2.227729306256967
    - 1.3245840157394033
    - 1.596227885133199
    - -2.034503697616003
    time_from_start:
      nsecs: 3800000
      secs: 15
    velocities:
    - -0.0038888116570938063
    - 0.0013431723098879986
    - 0.00025362084738229967
    - -0.006456503740536936
    - -0.0006986652514878848
    - -0.3136
  - accelerations:
    - 0.0
    - -2.6093749882973423e-16
    - 0.0
    - 0.0
    - -5.218749976594685e-16
    - 0.0
    effort: []
    positions:
    - 1.3112409994370764
    - -0.6008939902218704
    - -2.2275638594539298
    - 1.3203721857037563
    - 1.5957721184505897
    - -2.2390772489153132
    time_from_start:
      nsecs: 656139130
      secs: 15
    velocities:
    - -0.0038888116570938063
    - 0.0013431723098879986
    - 0.0002536208473819593
    - -0.006456503740536936
    - -0.0006986652514878848
    - -0.3136
  - accelerations:
    - 0.0
    - 0.0
    - 0.0
    - 0.0
    - 5.218749976594685e-16
    - 0.0
    effort: []
    positions:
    - 1.3087041754223256
    - -0.6000177863652356
    - -2.2273984126508926
    - 1.3161603556681092
    - 1.5953163517679803
    - -2.4436508002146233
    time_from_start:
      nsecs: 308478260
      secs: 16
    velocities:
    - -0.0038888116570938063
    - 0.0013431723098879134
    - 0.0002536208473819593
    - -0.006456503740536936
    - -0.0006986652514878848
    - -0.3136
  - accelerations:
    - 0.0
    - 2.6093749882973423e-16
    - 1.043583793090383e-15
    - 0.0
    - -5.218749976594685e-16
    - 0.0
    effort: []
    positions:
    - 1.306167351407575
    - -0.5991415825086008
    - -2.2272329658478554
    - 1.3119485256324621
    - 1.594860585085371
    - -2.6482243515139334
    time_from_start:
      nsecs: 960817391
      secs: 16
    velocities:
    - -0.0038888116570938063
    - 0.0013431723098879986
    - 0.00025362084738229967
    - -0.006456503740536936
    - -0.0006986652514878848
    - -0.3136
  - accelerations:
    - 0.0
    - -2.6093749882973423e-16
    - -1.043583793090383e-15
    - 0.0
    - 5.218749976594685e-16
    - 0.0
    effort: []
    positions:
    - 1.3036305273928241
    - -0.5982653786519659
    - -2.2270675190448177
    - 1.307736695596815
    - 1.5944048184027615
    - -2.8527979028132435
    time_from_start:
      nsecs: 613156521
      secs: 17
    velocities:
    - -0.0038888116570938063
    - 0.0013431723098879986
    - 0.00025362084738229967
    - -0.006456503740536936
    - -0.0006986652514878848
    - -0.3136
  - accelerations:
    - 0.011922668672650943
    - -0.004118018519066204
    - -0.0007775736133417815
    - 0.01979493008917826
    - 0.002142030790148249
    - 0.9614630960393524
    effort: []
    positions:
    - 1.3010937033780734
    - -0.5973891747953312
    - -2.2269020722417805
    - 1.303524865561168
    - 1.5939490517201522
    - -3.0573714541125536
    time_from_start:
      nsecs: 265495652
      secs: 18
    velocities:
    - 0.0
    - 0.0
    - 0.0
    - 0.0
    - 0.0
    - 0.0
multi_dof_joint_trajectory:
  header:
    frame_id: ''
    seq: 0
    stamp:
      nsecs: 0
      secs: 0
  joint_names: []
  points: []
---
joint_trajectory:
  header:
    frame_id: base
    seq: 0
    stamp:
      nsecs: 0
      secs: 0
  joint_names:
  - joint_1
  - joint_2
  - joint_3
  - joint_4
  - joint_5
  - joint_6
  points:
  - accelerations:
    - -0.06648136425513133
    - 0.0
    - 0.0
    - 0.0
    - 0.0
    - 0.0
    effort: []
    positions:
    - 1.3011039953150247
    - -0.5973820530731077
    - -2.226893758211254
    - 1.303535994022485
    - 1.5939427919351568
    - -3.0566375485001567
    time_from_start:
      nsecs: 0
      secs: 0
    velocities:
    - 0.0
    - 0.0
    - 0.0
    - 0.0
    - 0.0
    - 0.0
  - accelerations:
    - 0.06648136425513133
    - -0.3603120405764403
    - 0.31375500542102747
    - 0.9955278118741137
    - 0.26123939451954853
    - -0.08365725964180501
    effort: []
    positions:
    - 1.2952396853468628
    - -0.5655989885274958
    - -2.2545700345101296
    - 1.215720653044353
    - 1.570898908848186
    - -3.049258155686498
    time_from_start:
      nsecs: 420023409
      secs: 0
    velocities:
    - 0.0
    - 0.0
    - 0.0
    - 0.0
    - 0.0
    - 0.0
multi_dof_joint_trajectory:
  header:
    frame_id: ''
    seq: 0
    stamp:
      nsecs: 0
      secs: 0
  joint_names: []
  points: []
---
joint_trajectory:
  header:
    frame_id: base
    seq: 0
    stamp:
      nsecs: 0
      secs: 0
  joint_names:
  - joint_1
  - joint_2
  - joint_3
  - joint_4
  - joint_5
  - joint_6
  points:
  - accelerations:
    - 0.06565440393587038
    - 0.0
    - 0.0
    - 0.0
    - 0.0
    - 0.0
    effort: []
    positions:
    - 1.2953659484303401
    - -0.5662880494497785
    - -2.2540108633787677
    - 1.2178886002074825
    - 1.5714714381312316
    - -3.0494523398791227
    time_from_start:
      nsecs: 0
      secs: 0
    velocities:
    - 0.0
    - 0.0
    - 0.0
    - 0.0
    - 0.0
    - 0.0
  - accelerations:
    - 1.312351064313216e-15
    - 0.0
    - -2.6331416853101183e-15
    - 0.0
    - 0.0
    - 0.0
    effort: []
    positions:
    - 1.3009136756816084
    - -0.5966162174106273
    - -2.2254108882609955
    - 1.302903523903534
    - 1.5937575846256444
    - -3.0572255708997997
    time_from_start:
      nsecs: 411093507
      secs: 0
    velocities:
    - 0.013495049571617335
    - -0.07377437849966689
    - 0.06957048616135755
    - 0.2068019132236853
    - 0.05421186696474041
    - -0.01890866893856162
  - accelerations:
    - -0.065654403935873
    - 0.35891775131542014
    - -0.3384655073857052
    - -1.0061064446962018
    - -0.26374470082026097
    - 0.09199205840584496
    effort: []
    positions:
    - 1.306461402932877
    - -0.6269443853714761
    - -2.196810913143224
    - 1.3879184475995856
    - 1.6160437311200573
    - -3.064998801920477
    time_from_start:
      nsecs: 822187013
      secs: 0
    velocities:
    - 0.0
    - 0.0
    - 0.0
    - 0.0
    - 0.0
    - 0.0
multi_dof_joint_trajectory:
  header:
    frame_id: ''
    seq: 0
    stamp:
      nsecs: 0
      secs: 0
  joint_names: []
  points: []
---
joint_trajectory:
  header:
    frame_id: base
    seq: 0
    stamp:
      nsecs: 0
      secs: 0
  joint_names:
  - joint_1
  - joint_2
  - joint_3
  - joint_4
  - joint_5
  - joint_6
  points:
  - accelerations:
    - 0.010919217701465703
    - 0.0
    - 0.0
    - 0.0
    - 0.0
    - 0.0
    effort: []
    positions:
    - 1.3064420354039796
    - -0.6267312867082714
    - -2.1969646212487253
    - 1.3872555255243797
    - 1.6158885708979547
    - -3.064926903709137
    time_from_start:
      nsecs: 0
      secs: 0
    velocities:
    - 0.0
    - 0.0
    - 0.0
    - 0.0
    - 0.0
    - 0.0
  - accelerations:
    - 1.2129937589861979e-17
    - 1.0108281324884983e-17
    - -4.043312529953993e-17
    - 1.8868791806451966e-17
    - -5.397822227488581e-16
    - 0.0
    effort: []
    positions:
    - 1.3087031883305893
    - -0.6248809799030165
    - -2.204209866500282
    - 1.390751937555099
    - 1.6151947126903938
    - -2.863108736784312
    time_from_start:
      nsecs: 643552828
      secs: 0
    velocities:
    - 0.0035135467167776
    - 0.0028751436155104526
    - -0.011258198137011507
    - 0.005432983707764959
    - -0.0010781682204663405
    - 0.3136
  - accelerations:
    - -1.2129937589861979e-17
    - -1.0108281324884983e-17
    - -1.0323924659815863e-15
    - -5.55281587447015e-16
    - 5.397822227488581e-16
    - 0.0
    effort: []
    positions:
    - 1.310964341257199
    - -0.6230306730977616
    - -2.2114551117518384
    - 1.3942483495858182
    - 1.6145008544828328
    - -2.6612905698594878
    time_from_start:
      nsecs: 287105656
      secs: 1
    velocities:
    - 0.0035135467167776
