joint_trajectory:
  header:
    frame_id: base
    seq: 0
    stamp:
      nsecs: 0
      secs: 0
  joint_names:
  - joint_1
  - joint_2
  - joint_3
  - joint_4
  - joint_5
  - joint_6
  points:
  - accelerations:
    - 0.12552526444165918
    - 0.0
    - 0.0
    - 0.0
    - 0.0
    - 0.0
    effort: []
    positions:
    - 1.349668813098126
    - -0.5496734849487184
    - -2.45575472661031
    - 1.4842952269811975
    - 1.5915262955518292
    - -2.8150123747008977
    time_from_start:
      nsecs: 0
      secs: 0
    velocities:
    - 0.0
    - 0.0
    - 0.0
    - 0.0
    - 0.0
    - 0.0
  - accelerations:
    - 0.05048478210396204
    - 0.0009787170563671315
    - 0.09812199858121409
    - -0.11147397829267099
    - -0.004461982121694232
    - -0.3957595788777551
    effort: []
    positions:
    - 1.3643657038040253
    - -0.5493885654737802
    - -2.427189915019702
    - 1.4518434502825204
    - 1.5902273444453523
    - -2.930224029266455
    time_from_start:
      nsecs: 483907282
      secs: 0
    velocities:
    - 0.040188244469194
    - 0.000779104488288271
    - 0.07810969370269669
    - -0.0887384931632268
    - -0.0035519461677480193
    - -0.31504310891571186
  - accelerations:
    - 0.0
    - 1.2852217687592767e-15
    - 0.0
    - 2.5497855527164528e-15
    - 0.0
    - 0.0
    effort: []
    positions:
    - 1.3790625945099246
    - -0.5491036459988421
    - -2.3986251034290946
    - 1.419391673583843
    - 1.5889283933388751
    - -3.0454356838320122
    time_from_start:
      nsecs: 777814564
      secs: 0
    velocities:
    - 0.05000519416578922
    - 0.0009694195834347622
    - 0.09718987359170861
    - -0.11041501412205641
    - -0.004419594837511057
    - -0.392
  - accelerations:
    - 0.0
    - -1.2852217687592767e-15
    - 5.146789356409136e-15
    - 0.0
    - 2.5704435375185534e-15
    - 0.0
    effort: []
    positions:
    - 1.393759485215824
    - -0.5488187265239038
    - -2.370060291838487
    - 1.3869398968851658
    - 1.587629442232398
    - -3.1606473383975695
    time_from_start:
      nsecs: 71721846
      secs: 1
    velocities:
    - 0.05000519416578922
    - 0.0009694195834347622
    - 0.09718987359170936
    - -0.11041501412205604
    - -0.0044195948375106795
    - -0.392
  - accelerations:
    - 0.0
    - 0.0
    - 0.0
    - -2.5497855527164528e-15
    - 0.0
    - 0.0
    effort: []
    positions:
    - 1.4084563759217232
    - -0.5485338070489657
    - -2.3414954802478793
    - 1.3544881201864887
    - 1.586330491125921
    - -3.2758589929631268
    time_from_start:
      nsecs: 365629128
      secs: 1
    velocities:
    - 0.05000519416578922
    - 0.0009694195834345733
    - 0.09718987359171012
    - -0.11041501412205641
    - -0.004419594837510301
    - -0.392
  - accelerations:
    - 0.0
    - 1.2852217687592767e-15
    - -5.146789356409136e-15
    - 2.5497855527164528e-15
    - -2.5704435375185534e-15
    - 0.0
    effort: []
    positions:
    - 1.4231532666276225
    - -0.5482488875740276
    - -2.3129306686572715
    - 1.3220363434878113
    - 1.5850315400194441
    - -3.391070647528684
    time_from_start:
      nsecs: 659536410
      secs: 1
    velocities:
    - 0.05000519416578922
    - 0.0009694195834347622
    - 0.09718987359170936
    - -0.11041501412205641
    - -0.0044195948375106795
    - -0.392
  - accelerations:
    - 0.0
    - -1.2852217687592767e-15
    - 0.0
    - -2.5497855527164528e-15
    - 0.0
    - 0.0
    effort: []
    positions:
    - 1.4378501573335218
    - -0.5479639680990893
    - -2.284365857066664
    - 1.2895845667891341
    - 1.583732588912967
    - -3.5062823020942413
    time_from_start:
      nsecs: 953443692
      secs: 1
    velocities:
    - 0.05000519416578922
    - 0.0009694195834347622
    - 0.09718987359170861
    - -0.11041501412205641
    - -0.004419594837511057
    - -0.392
  - accelerations:
    - -0.05048478210396204
    - -0.0009787170563671315
    - -0.09812199858121409
    - 0.11147397829267099
    - 0.004461982121694232
    - 0.3957595788777551
    effort: []
    positions:
    - 1.4525470480394211
    - -0.5476790486241512
    - -2.2558010454760566
    - 1.2571327900904568
    - 1.5824336378064898
    - -3.6214939566597986
    time_from_start:
      nsecs: 247350974
      secs: 2
    velocities:
    - 0.040188244469194
    - 0.000779104488288271
    - 0.07810969370269669
    - -0.0887384931632268
    - -0.0035519461677480193
    - -0.31504310891571186
  - accelerations:
    - -0.12552526444165918
    - -0.0024334801933195804
    - -0.24397034722439412
    - 0.27716868371811615
    - 0.011094263705169567
    - 0.9840158503932849
    effort: []
    positions:
    - 1.4672439387453204
    - -0.547394129149213
    - -2.227236233885449
    - 1.2246810133917796
    - 1.581134686700013
    - -3.736705611225356
    time_from_start:
      nsecs: 731258256
      secs: 2
    velocities:
    - 0.0
    - 0.0
    - 0.0
    - 0.0
    - 0.0
    - 0.0
multi_dof_joint_trajectory:
  header:
    frame_id: ''
    seq: 0
    stamp:
      nsecs: 0
      secs: 0
  joint_names: []
  points: []
---
joint_trajectory:
  header:
    frame_id: base
    seq: 0
    stamp:
      nsecs: 0
      secs: 0
  joint_names:
  - joint_1
  - joint_2
  - joint_3
  - joint_4
  - joint_5
  - joint_6
  points:
  - accelerations:
    - -0.015526717696664404
    - 0.0
    - 0.0
    - 0.0
    - 0.0
    - 0.0
    effort: []
    positions:
    - 1.4672439387453204
    - -0.547394129149213
    - -2.227236233885449
    - 1.2246810133917796
    - 1.581134686700013
    - -3.736705611225356
    time_from_start:
      nsecs: 0
      secs: 0
    velocities:
    - 0.0
    - 0.0
    - 0.0
    - 0.0
    - 0.0
    - 0.0
  - accelerations:
    - 0.015526717696664404
    - -0.35075138304478903
    - 0.20938771687976815
    - 1.0073377505995698
    - 0.07666171501561925
    - -0.029727359786293414
    effort: []
    positions:
    - 1.4656802445995336
    - -0.5120699933589682
    - -2.2483236493637957
    - 1.1232321319078962
    - 1.5734140932482716
    - -3.733711771872077
    time_from_start:
      nsecs: 448798167
      secs: 0
    velocities:
    - 0.0
    - 0.0
    - 0.0
    - 0.0
    - 0.0
    - 0.0
multi_dof_joint_trajectory:
  header:
    frame_id: ''
    seq: 0
    stamp:
      nsecs: 0
      secs: 0
  joint_names: []
  points: []
---
joint_trajectory:
  header:
    frame_id: base
    seq: 0
    stamp:
      nsecs: 0
      secs: 0
  joint_names:
  - joint_1
  - joint_2
  - joint_3
  - joint_4
  - joint_5
  - joint_6
  points:
  - accelerations:
    - 0.017639138310971258
    - 0.0
    - 0.0
    - 0.0
    - 0.0
    - 0.0
    effort: []
    positions:
    - 1.4656802445995336
    - -0.5120699933589682
    - -2.2483236493637957
    - 1.1232321319078962
    - 1.5734140932482716
    - -3.733711771872077
    time_from_start:
      nsecs: 0
      secs: 0
    velocities:
    - 0.0
    - 0.0
    - 0.0
    - 0.0
    - 0.0
    - 0.0
  - accelerations:
    - 0.0
    - -5.538429105444066e-16
    - 2.1846025915918262e-15
    - 0.0
    - -1.0923012957959131e-15
    - -2.1826795259302136e-15
    effort: []
    positions:
    - 1.4674743983776513
    - -0.5461962369318352
    - -2.225647976286753
    - 1.2216361839371719
    - 1.581822703058473
    - -3.736582693005923
    time_from_start:
      nsecs: 451030745
      secs: 0
    velocities:
    - 0.003977896846536421
    - -0.07566278785482128
    - 0.05027522697686204
    - 0.21817592952614462
    - 0.018643096737698754
    - -0.006365244866002647
  - accelerations:
    - -0.017639138310971258
    - 0.33551055531440904
    - -0.2229348111508985
    - -0.967454799736006
    - -0.08266885105062771
    - 0.028225325820700888
    effort: []
    positions:
    - 1.469268552155769
    - -0.5803224805047023
    - -2.20297230320971
    - 1.3200402359664476
    - 1.5902313128686743
    - -3.73945361413977
    time_from_start:
      nsecs: 902061490
      secs: 0
    velocities:
    - 0.0
    - 0.0
    - 0.0
    - 0.0
    - 0.0
    - 0.0
multi_dof_joint_trajectory:
  header:
    frame_id: ''
    seq: 0
    stamp:
      nsecs: 0
      secs: 0
  joint_names: []
  points: []
---
joint_trajectory:
  header:
    frame_id: base
    seq: 0
    stamp:
      nsecs: 0
      secs: 0
  joint_names:
  - joint_1
  - joint_2
  - joint_3
  - joint_4
  - joint_5
  - joint_6
  points:
  - accelerations:
    - -0.22251184119983128
    - 0.0
    - 0.0
    - 0.0
    - 0.0
    - 0.0
    effort: []
    positions:
    - 1.469268552155769
    - -0.5803224805047023
    - -2.20297230320971
    - 1.3200402359664476
    - 1.5902313128686743
    - -3.73945361413977
    time_from_start:
      nsecs: 0
      secs: 0
    velocities:
    - 0.0
    - 0.0
    - 0.0
    - 0.0
    - 0.0
    - 0.0
  - accelerations:
    - 0.0
    - -1.0303999076618172e-15
    - 0.0
    - 0.0
    - 0.0
    - 4.079542491559032e-15
    effort: []
    positions:
    - 1.457154647145535
    - -0.5620049560081983
    - -2.2155637229041254
    - 1.2651701912748734
    - 1.5862262384928905
    - -3.7702868519219708
    time_from_start:
      nsecs: 329974604
      secs: 0
    velocities:
    - -0.036711628320921744
    - 0.05551192208515136
    - -0.038158753883540716
    - -0.1662856597412383
    - -0.012137523099050878
    - -0.09344124495234898
  - accelerations:
    - 0.22251184119983128
    - -0.33646178490724155
    - 0.23128297416540944
    - 1.007869441003934
    - 0.07356640759070214
    - 0.5663541610466334
    effort: []
    positions:
    - 1.445040742135301
    - -0.5436874315116945
    - -2.2281551425985406
    - 1.2103001465832992
    - 1.5822211641171067
    - -3.8011200897041713
    time_from_start:
      nsecs: 659949208
      secs: 0
    velocities:
    - 0.0
    - 0.0
    - 0.0
    - 0.0
    - 0.0
    - 0.0
multi_dof_joint_trajectory:
  header:
    frame_id: ''
    seq: 0
    stamp:
      nsecs: 0
      secs: 0
  joint_names: []
  points: []
---
joint_trajectory:
  header:
    frame_id: base
    seq: 0
    stamp:
      nsecs: 0
      secs: 0
  joint_names:
  - joint_1
  - joint_2
  - joint_3
  - joint_4
  - joint_5
  - joint_6
  points:
  - accelerations:
    - -0.02575816468277622
    - 0.0
    - 0.0
    - 0.0
    - 0.0
    - 0.0
    effort: []
    positions:
    - 1.445040742135301
    - -0.5436874315116945
    - -2.2281551425985406
    - 1.2103001465832992
    - 1.5822211641171067
    - -3.8011200897041713
    time_from_start:
      nsecs: 0
      secs: 0
    velocities:
    - 0.0
    - 0.0
    - 0.0
    - 0.0
    - 0.0
    - 0.0
  - accelerations:
    - 0.02575816468277622
    - -0.3509208222361951
    - 0.21085059059451128
    - 1.007604516280923
    - 0.1258229592790211
    - -0.030377380278212206
    effort: []
    positions:
    - 1.4424518149574366
    - -0.5084167332630206
    - -2.249347523002255
    - 1.109026831932779
    - 1.5695748252615043
    - -3.798066889821216
    time_from_start:
      nsecs: 448350292
      secs: 0
    velocities:
    - 0.0
    - 0.0
    - 0.0
    - 0.0
    - 0.0
    - 0.0
multi_dof_joint_trajectory:
  header:
    frame_id: ''
    seq: 0
    stamp:
      nsecs: 0
      secs: 0
  joint_names: []
  points: []
---
joint_trajectory:
  header:
    frame_id: base
    seq: 0
    stamp:
      nsecs: 0
      secs: 0
  joint_names:
  - joint_1
  - joint_2
  - joint_3
  - joint_4
  - joint_5
  - joint_6
  points:
  - accelerations:
    - 0.02295702060363533
    - 0.0
    - 0.0
    - 0.0
    - 0.0
    - 0.0
    effort: []
    positions:
    - 1.4424518149574366
    - -0.5084167332630206
    - -2.249347523002255
    - 1.109026831932779
    - 1.5695748252615043
    - -3.798066889821216
    time_from_start:
      nsecs: 0
      secs: 0
    velocities:
    - 0.0
    - 0.0
    - 0.0
    - 0.0
    - 0.0
    - 0.0
  - accelerations:
    - -1.0904277530824957e-15
    - 0.0
    - 0.0
    - 0.0
    - 1.0923509060861685e-15
    - 2.1827786591686642e-15
    effort: []
    positions:
    - 1.4447866616702427
    - -0.5424267045429652
    - -2.226981230983396
    - 1.2074228542160357
    - 1.5805023563451313
    - -3.801093742638046
    time_from_start:
      nsecs: 451010261
      secs: 0
    velocities:
    - 0.005176925926272072
    - -0.07540842022100652
    - 0.049591536948414304
    - 0.21816803476064106
    - 0.024229007697462734
    - -0.006711272622956297
  - accelerations:
    - -0.02295702060363315
    - 0.33439780312788187
    - -0.21991312058630444
    - -0.9674637304808924
    - -0.10744326591452913
    - 0.02976106401289576
    effort: []
    positions:
    - 1.4471215083830486
    - -0.5764366758229097
    - -2.2046149389645366
    - 1.3058188764992924
    - 1.5914298874287585
    - -3.8041205954548754
    time_from_start:
      nsecs: 902020522
      secs: 0
    velocities:
    - 0.0
    - 0.0
    - 0.0
    - 0.0
    - 0.0
    - 0.0
multi_dof_joint_trajectory:
  header:
    frame_id: ''
    seq: 0
    stamp:
      nsecs: 0
      secs: 0
  joint_names: []
  points: []
---
joint_trajectory:
  header:
    frame_id: base
    seq: 0
    stamp:
      nsecs: 0
      secs: 0
  joint_names:
  - joint_1
  - joint_2
  - joint_3
  - joint_4
  - joint_5
  - joint_6
  points:
  - accelerations:
    - -0.3130088814976939
    - 0.0
    - 0.0
    - 0.0
    - 0.0
    - 0.0
    effort: []
    positions:
    - 1.4471215083830486
    - -0.5764366758229097
    - -2.2046149389645366
    - 1.3058188764992924
    - 1.5914298874287585
    - -3.8041205954548754
    time_from_start:
      nsecs: 0
      secs: 0
    velocities:
    - 0.0
    - 0.0
    - 0.0
    - 0.0
    - 0.0
    - 0.0
  - accelerations:
    - -2.6430916057090466e-15
    - 3.388578981678265e-16
    - 4.427743202726266e-15
    - 1.445793698849393e-15
    - 2.247757391179916e-15
    - -4.427743202726266e-15
    effort: []
    positions:
    - 1.4323557943920808
    - -0.5592667850638254
    - -2.2188359988476902
    - 1.259892368710688
    - 1.5860075159048534
    - -3.7890508942947045
    time_from_start:
      nsecs: 307159459
      secs: 0
    velocities:
    - -0.04807181929586067
    - 0.055898948496852216
    - -0.04629862269557262
    - -0.14952008312325427
    - -0.017653278684093617
    - 0.04906149146986521
  - accelerations:
    - 0.31300888149769973
    - -0.36397347972648314
    - 0.3014631090958673
    - 0.9735665232849291
    - 0.11494536917080998
    - -0.319452910135927
    effort: []
    positions:
    - 1.4175900804011128
    - -0.5420968943047412
    - -2.2330570587308434
    - 1.2139658609220838
    - 1.5805851443809487
    - -3.773981193134534
    time_from_start:
      nsecs: 614318917
      secs: 0
    velocities:
    - 0.0
    - 0.0
    - 0.0
    - 0.0
    - 0.0
    - 0.0
multi_dof_joint_trajectory:
  header:
    frame_id: ''
    seq: 0
    stamp:
      nsecs: 0
      secs: 0
  joint_names: []
  points: []
---
joint_trajectory:
  header:
    frame_id: base
    seq: 0
    stamp:
      nsecs: 0
      secs: 0
  joint_names:
  - joint_1
  - joint_2
  - joint_3
  - joint_4
  - joint_5
  - joint_6
  points:
  - accelerations:
    - -0.028046884860402372
    - 0.0
    - 0.0
    - 0.0
    - 0.0
    - 0.0
    effort: []
    positions:
    - 1.4175900804011128
    - -0.5420968943047412
    - -2.2330570587308434
    - 1.2139658609220838
    - 1.5805851443809487
    - -3.773981193134534
    time_from_start:
      nsecs: 0
      secs: 0
    velocities:
    - 0.0
    - 0.0
    - 0.0
    - 0.0
    - 0.0
    - 0.0
  - accelerations:
    - 0.028046884860402372
    - -0.35033364992666166
    - 0.2128013570300342
    - 1.0073635711672613
    - 0.13071867728943204
    - -0.03272961294158393
    effort: []
    positions:
    - 1.4147660262770037
    - -0.5068216331192678
    - -2.2544841281871433
    - 1.112533945691859
    - 1.5674230188352878
    - -3.7706856329014378
    time_from_start:
      nsecs: 448754886
      secs: 0
    velocities:
    - 0.0
    - 0.0
    - 0.0
    - 0.0
    - 0.0
    - 0.0
multi_dof_joint_trajectory:
  header:
    frame_id: ''
    seq: 0
    stamp:
      nsecs: 0
      secs: 0
  joint_names: []
  points: []
---
joint_trajectory:
  header:
    frame_id: base
    seq: 0
    stamp:
      nsecs: 0
      secs: 0
  joint_names:
  - joint_1
  - joint_2
  - joint_3
  - joint_4
  - joint_5
  - joint_6
  points:
  - accelerations:
    - 0.02830634751587983
    - 0.0
    - 0.0
    - 0.0
    - 0.0
    - 0.0
    effort: []
    positions:
    - 1.4147660262770037
    - -0.5068216331192678
    - -2.2544841281871433
    - 1.112533945691859
    - 1.5674230188352878
    - -3.7706856329014378
    time_from_start:
      nsecs: 0
      secs: 0
    velocities:
    - 0.0
    - 0.0
    - 0.0
    - 0.0
    - 0.0
    - 0.0
  - accelerations:
    - 1.1152243955219711e-15
    - -7.717815885965198e-16
    - 1.3892068594737355e-16
    - -4.939402167017727e-16
    - 7.717815885965198e-17
    - -2.3153447657895594e-17
    effort: []
    positions:
    - 1.4176261545663866
    - -0.54078925302889
    - -2.232045832863367
    - 1.2103526097881367
    - 1.5807309291808493
    - -3.774609469936936
    time_from_start:
      nsecs: 449537408
      secs: 0
    velocities:
    - 0.006362381051905014
    - -0.0755612753782828
    - 0.04991418935121811
    - 0.21759849629089767
    - 0.0296035660139267
    - -0.00872861070536151
  - accelerations:
    - -0.028306347515882097
    - 0.33617347061607444
    - -0.22206912447125776
    - -0.9680996162747972
    - -0.13170679663215548
    - 0.03883374572210246
    effort: []
    positions:
    - 1.4204862828557698
    - -0.5747568729385124
    - -2.2096075375395907
    - 1.3081712738844142
    - 1.594038839526411
    - -3.778533306972434
    time_from_start:
      nsecs: 899074817
      secs: 0
    velocities:
    - 0.0
    - 0.0
    - 0.0
    - 0.0
    - 0.0
    - 0.0
multi_dof_joint_trajectory:
  header:
    frame_id: ''
    seq: 0
    stamp:
      nsecs: 0
      secs: 0
  joint_names: []
  points: []
---
joint_trajectory:
  header:
    frame_id: base
    seq: 0
    stamp:
      nsecs: 0
      secs: 0
  joint_names:
  - joint_1
  - joint_2
  - joint_3
  - joint_4
  - joint_5
  - joint_6
  points:
  - accelerations:
    - -0.3201065750294205
    - 0.0
    - 0.0
    - 0.0
    - 0.0
    - 0.0
    effort: []
    positions:
    - 1.4204862828557698
    - -0.5747568729385124
    - -2.2096075375395907
    - 1.3081712738844142
    - 1.594038839526411
    - -3.778533306972434
    time_from_start:
      nsecs: 0
      secs: 0
    velocities:
    - 0.0
    - 0.0
    - 0.0
    - 0.0
    - 0.0
    - 0.0
  - accelerations:
    - -3.16928917012364e-16
    - 3.622044765855589e-16
    - -5.025587112624629e-15
    - 1.3582667871958457e-15
    - -1.3582667871958457e-16
    - 3.395666967989614e-16
    effort: []
    positions:
    - 1.405448720836817
    - -0.5578040019351694
    - -2.223539295484401
    - 1.2624960980688944
    - 1.587225961313312
    - -3.7624475237002546
    time_from_start:
      nsecs: 306518306
      secs: 0
    velocities:
    - -0.04905926250301527
    - 0.05530785826083474
    - -0.045451634332845436
    - -0.14901288103621652
    - -0.022226660161815813
    - 0.05247902972049821
  - accelerations:
    - 0.3201065750294218
    - -0.3608780111401058
    - 0.2965671771947822
    - 0.9722935191053496
    - 0.14502664116290903
    - -0.3424201997260646
    effort: []
    positions:
    - 1.390411158817864
    - -0.5408511309318265
    - -2.237471053429212
    - 1.2168209222533748
    - 1.580413083100213
    - -3.746361740428075
    time_from_start:
      nsecs: 613036611
      secs: 0
    velocities:
    - 0.0
    - 0.0
    - 0.0
    - 0.0
    - 0.0
    - 0.0
multi_dof_joint_trajectory:
  header:
    frame_id: ''
    seq: 0
    stamp:
      nsecs: 0
      secs: 0
  joint_names: []
  points: []
---
joint_trajectory:
  header:
    frame_id: base
    seq: 0
    stamp:
      nsecs: 0
      secs: 0
  joint_names:
  - joint_1
  - joint_2
  - joint_3
  - joint_4
  - joint_5
  - joint_6
  points:
  - accelerations:
    - -0.03383990760818391
    - 0.0
    - 0.0
    - 0.0
    - 0.0
    - 0.0
    effort: []
    positions:
    - 1.390411158817864
    - -0.5408511309318265
    - -2.237471053429212
    - 1.2168209222533748
    - 1.580413083100213
    - -3.746361740428075
    time_from_start:
      nsecs: 0
      secs: 0
    velocities:
    - 0.0
    - 0.0
    - 0.0
    - 0.0
    - 0.0
    - 0.0
  - accelerations:
    - 0.03383990760818391
    - -0.35062016445312216
    - 0.2092795628125743
    - 1.0067760997999746
    - 0.14832244707517545
    - -0.03773596714765797
    effort: []
    positions:
    - 1.386988886720672
    - -0.5053924760379055
    - -2.258635756850352
    - 1.1150043985690161
    - 1.5654130488835167
    - -3.742545454966387
    time_from_start:
      nsecs: 449736030
      secs: 0
    velocities:
    - 0.0
    - 0.0
    - 0.0
    - 0.0
    - 0.0
    - 0.0
multi_dof_joint_trajectory:
  header:
    frame_id: ''
    seq: 0
    stamp:
      nsecs: 0
      secs: 0
  joint_names: []
  points: []
---
joint_trajectory:
  header:
    frame_id: base
    seq: 0
    stamp:
      nsecs: 0
      secs: 0
  joint_names:
  - joint_1
  - joint_2
  - joint_3
  - joint_4
  - joint_5
  - joint_6
  points:
  - accelerations:
    - 0.03377392429968603
    - 0.0
    - 0.0
    - 0.0
    - 0.0
    - 0.0
    effort: []
    positions:
    - 1.386988886720672
    - -0.5053924760379055
    - -2.258635756850352
    - 1.1150043985690161
    - 1.5654130488835167
    - -3.742545454966387
    time_from_start:
      nsecs: 0
      secs: 0
    velocities:
    - 0.0
    - 0.0
    - 0.0
    - 0.0
    - 0.0
    - 0.0
  - accelerations:
    - 0.0
    - 5.554377242454741e-16
    - 0.0
    - 0.0
    - 1.0954466228174628e-15
    - 2.198607658471668e-15
    effort: []
    positions:
    - 1.3904044810204823
    - -0.5395032907743849
    - -2.2359413958826546
    - 1.2129007977827335
    - 1.5807098497394443
    - -3.7468560833595204
    time_from_start:
      nsecs: 449735712
      secs: 0
    velocities:
    - 0.007594669950703215
    - -0.07584635554859065
    - 0.050461549634674654
    - 0.21767539588404294
    - 0.034012866753191595
    - -0.009584803419948149
  - accelerations:
    - -0.03377392429968603
    - 0.33729300777158566
    - -0.2244053485495503
    - -0.9680147248283162
    - -0.1512571309081368
    - 0.04262415973754197
    effort: []
    positions:
    - 1.3938200753202925
    - -0.5736141055108641
    - -2.213247034914957
    - 1.310797196996451
    - 1.596006650595372
    - -3.7511667117526533
    time_from_start:
      nsecs: 899471425
      secs: 0
    velocities:
    - 0.0
    - 0.0
    - 0.0
    - 0.0
    - 0.0
    - 0.0
multi_dof_joint_trajectory:
  header:
    frame_id: ''
    seq: 0
    stamp:
      nsecs: 0
      secs: 0
  joint_names: []
  points: []
---
joint_trajectory:
  header:
    frame_id: base
    seq: 0
    stamp:
      nsecs: 0
      secs: 0
  joint_names:
  - joint_1
  - joint_2
  - joint_3
  - joint_4
  - joint_5
  - joint_6
  points:
  - accelerations:
    - -0.30643886540941623
    - 0.0
    - 0.0
    - 0.0
    - 0.0
    - 0.0
    effort: []
    positions:
    - 1.3938200753202925
    - -0.5736141055108641
    - -2.213247034914957
    - 1.310797196996451
    - 1.596006650595372
    - -3.7511667117526533
    time_from_start:
      nsecs: 0
      secs: 0
    velocities:
    - 0.0
    - 0.0
    - 0.0
    - 0.0
    - 0.0
    - 0.0
  - accelerations:
    - 0.30643886540941623
    - -0.36850158363641433
    - 0.311780963022879
    - 0.9735313746962527
    - 0.1555204133082026
    - 0.09309152528587623
    effort: []
    positions:
    - 1.3647775919004828
    - -0.5386896806385961
    - -2.2427958111026856
    - 1.2185315871153235
    - 1.5812673354014233
    - -3.7599893820625296
    time_from_start:
      nsecs: 435371454
      secs: 0
    velocities:
    - 0.0
    - 0.0
    - 0.0
    - 0.0
    - 0.0
    - 0.0
multi_dof_joint_trajectory:
  header:
    frame_id: ''
    seq: 0
    stamp:
      nsecs: 0
      secs: 0
  joint_names: []
  points: []
---
joint_trajectory:
  header:
    frame_id: base
    seq: 0
    stamp:
      nsecs: 0
      secs: 0
  joint_names:
  - joint_1
  - joint_2
  - joint_3
  - joint_4
  - joint_5
  - joint_6
  points:
  - accelerations:
    - -0.036309961475863815
    - 0.0
    - 0.0
    - 0.0
    - 0.0
    - 0.0
    effort: []
    positions:
    - 1.3647775919004828
    - -0.5386896806385961
    - -2.2427958111026856
    - 1.2185315871153235
    - 1.5812673354014233
    - -3.7599893820625296
    time_from_start:
      nsecs: 0
      secs: 0
    velocities:
    - 0.0
    - 0.0
    - 0.0
    - 0.0
    - 0.0
    - 0.0
  - accelerations:
    - 0.036309961475863815
    - -0.3549958207924721
    - 0.21029547574768162
    - 1.00959822486695
    - 0.17498055080319555
    - -0.02110015106764724
    effort: []
    positions:
    - 1.3611832545922498
    - -0.5035485052950378
    - -2.2636130426146206
    - 1.1185910634004397
    - 1.5639459421417483
    - -3.7579006698439223
    time_from_start:
      nsecs: 444950316
      secs: 0
    velocities:
    - 0.0
    - 0.0
    - 0.0
    - 0.0
    - 0.0
    - 0.0
multi_dof_joint_trajectory:
  header:
    frame_id: ''
    seq: 0
    stamp:
      nsecs: 0
      secs: 0
  joint_names: []
  points: []
---
joint_trajectory:
  header:
    frame_id: base
    seq: 0
    stamp:
      nsecs: 0
      secs: 0
  joint_names:
  - joint_1
  - joint_2
  - joint_3
  - joint_4
  - joint_5
  - joint_6
  points:
  - accelerations:
    - 0.03773762445734576
    - 0.0
    - 0.0
    - 0.0
    - 0.0
    - 0.0
    effort: []
    positions:
    - 1.3611832545922498
    - -0.5035485052950378
    - -2.2636130426146206
    - 1.1185910634004397
    - 1.5639459421417483
    - -3.7579006698439223
    time_from_start:
      nsecs: 0
      secs: 0
    velocities:
    - 0.0
    - 0.0
    - 0.0
    - 0.0
    - 0.0
    - 0.0
  - accelerations:
    - -1.1076284492239493e-15
    - 5.57687051357513e-16
    - -2.2152568984478986e-15
    - 0.0
    - -1.0998827957328728e-15
    - -2.2152568984478986e-15
    effort: []
    positions:
    - 1.3649689784898622
    - -0.537812005892391
    - -2.2411228239880714
    - 1.2157764038410674
    - 1.5814468963511121
    - -3.7620435091081825
    time_from_start:
      nsecs: 447921787
      secs: 0
    velocities:
    - 0.008451752088983959
    - -0.0764943827340988
    - 0.050210146698370234
    - 0.21696944264893248
    - 0.03907145114082192
    - -0.009249023793869693
  - accelerations:
    - -0.03773762445734355
    - 0.34155240929018255
    - -0.22419158064526812
    - -0.9687827161988036
    - -0.17445657830849529
    - 0.04129749463250977
    effort: []
    positions:
    - 1.3687547023874744
    - -0.572075506489744
    - -2.2186326053615226
    - 1.3129617442816952
    - 1.5989478505604757
    - -3.766186348372443
    time_from_start:
      nsecs: 895843574
      secs: 0
    velocities:
    - 0.0
    - 0.0
    - 0.0
    - 0.0
    - 0.0
    - 0.0
multi_dof_joint_trajectory:
  header:
    frame_id: ''
    seq: 0
    stamp:
      nsecs: 0
      secs: 0
  joint_names: []
  points: []
---
joint_trajectory:
  header:
    frame_id: base
    seq: 0
    stamp:
      nsecs: 0
      secs: 0
  joint_names:
  - joint_1
  - joint_2
  - joint_3
  - joint_4
  - joint_5
  - joint_6
  points:
  - accelerations:
    - 0.04349176928601433
    - 0.0
    - 0.0
    - 0.0
    - 0.0
    - 0.0
    effort: []
    positions:
    - 1.3687547023874744
    - -0.572075506489744
    - -2.2186326053615226
    - 1.3129617442816952
    - 1.5989478505604757
    - -3.766186348372443
    time_from_start:
      nsecs: 0
      secs: 0
    velocities:
    - 0.0
    - 0.0
    - 0.0
    - 0.0
    - 0.0
    - 0.0
  - accelerations:
    - 0.020122514578613013
    - 0.21846997610513558
    - 0.11476792327346129
    - -0.06333277918106851
    - -0.10397146843103791
    - 0.46566928873859925
    effort: []
    positions:
    - 1.3731629077786052
    - -0.5242156566332774
    - -2.1934905896295165
    - 1.2990875389714887
    - 1.576170996014242
    - -3.664172961274018
    time_from_start:
      nsecs: 450238232
      secs: 0
    velocities:
    - 0.013364971918624024
    - 0.14510339074676007
    - 0.0762265603394815
    - -0.04206436586126654
    - -0.06905577086255127
    - 0.3092882324941779
  - accelerations:
    - -3.2796255274613423e-15
    - 8.532359095834387e-16
    - 0.0
    - 3.2796255274613423e-15
    - 0.0
    - 0.0
    effort: []
    positions:
    - 1.3775711131697361
    - -0.47635580677681083
    - -2.1683485738975103
    - 1.2852133336612819
    - 1.5533941414680084
    - -3.5621595741755927
    time_from_start:
      nsecs: 710476465
      secs: 0
    velocities:
    - 0.016939115173737505
    - 0.18390783481812772
    - 0.09661153743907547
    - -0.05331347812570543
    - -0.08752309119497349
    - 0.392
  - accelerations:
    - 3.2796255274613423e-15
    - -8.532359095834387e-16
    - 0.0
    - 0.0
    - 3.25296190528686e-15
    - 0.0
    effort: []
    positions:
    - 1.3819793185608669
    - -0.4284959569203442
    - -2.143206558165504
    - 1.2713391283510753
    - 1.5306172869217747
    - -3.4601461870771675
    time_from_start:
      nsecs: 970714697
      secs: 0
    velocities:
    - 0.016939115173737505
    - 0.18390783481812772
    - 0.09661153743907547
    - -0.053313478125705
    - -0.08752309119497306
    - 0.392
  - accelerations:
    - -2.9863256835420424e-15
    - 4.052870570521343e-15
    - 8.212395629740616e-15
    - -9.332267761068882e-16
    - -4.799451991406854e-15
    - 2.1330897739586018e-16
    effort: []
    positions:
    - 1.3863875239519978
    - -0.3806361070638776
    - -2.118064542433498
    - 1.2574649230408688
    - 1.5078404323755412
    - -3.3581327999787423
    time_from_start:
      nsecs: 230952930
      secs: 1
    velocities:
    - 0.016939115173737543
    - 0.18390783481812814
    - 0.09661153743907654
    - -0.053313478125705124
    - -0.08752309119497327
    - 0.392
  - accelerations:
    - 2.9863256835420424e-15
    - -3.1996346609379026e-15
    - -8.212395629740616e-15
    - -2.346398751354462e-15
    - 1.5464900861199863e-15
    - -2.1330897739586018e-16
    effort: []
    positions:
    - 1.3907957293431286
    - -0.332776257207411
    - -2.0929225267014915
    - 1.2435907177306622
    - 1.4850635778293075
    - -3.2561194128803175
    time_from_start:
      nsecs: 491191162
      secs: 1
    velocities:
    - 0.016939115173737543
    - 0.18390783481812825
    - 0.09661153743907654
    - -0.05331347812570555
    - -0.0875230911949737
    - 0.392
  - accelerations:
    - -3.2796255274613423e-15
    - 0.0
    - 0.0
    - 3.2796255274613423e-15
    - 0.0
    - 0.0
    effort: []
    positions:
    - 1.3952039347342595
    - -0.28491640735094437
    - -2.0677805109694853
    - 1.2297165124204554
    - 1.4622867232830739
    - -3.1541060257818923
    time_from_start:
      nsecs: 751429394
      secs: 1
    velocities:
    - 0.016939115173737505
    - 0.18390783481812784
    - 0.09661153743907547
    - -0.05331347812570543
    - -0.08752309119497349
    - 0.392
  - accelerations:
    - 3.2796255274613423e-15
    - -8.532359095834387e-16
    - 0.0
    - 0.0
    - 0.0
    - 0.0
    effort: []
    positions:
    - 1.3996121401253903
    - -0.23705655749447774
    - -2.042638495237479
    - 1.2158423071102489
    - 1.4395098687368402
    - -3.052092638683467
    time_from_start:
      nsecs: 11667627
      secs: 2
    velocities:
    - 0.016939115173737505
    - 0.18390783481812772
    - 0.09661153743907547
    - -0.053313478125705
    - -0.08752309119497349
    - 0.392
  - accelerations:
    - -3.2796255274613423e-15
    - 8.532359095834387e-16
    - 0.0
    - 0.0
    - 3.25296190528686e-15
    - 0.0
    effort: []
    positions:
    - 1.4040203455165212
    - -0.18919670763801116
    - -2.017496479505473
    - 1.2019681018000423
    - 1.4167330141906065
    - -2.950079251585042
    time_from_start:
      nsecs: 271905859
      secs: 2
    velocities:
    - 0.016939115173737505
    - 0.18390783481812772
    - 0.09661153743907547
    - -0.053313478125705
    - -0.08752309119497306
    - 0.392
  - accelerations:
    - 3.5729253713806576e-15
    - 2.346398751354462e-15
    - 1.6531445748179164e-15
    - -4.186188681393756e-15
    - -4.799451991406854e-15
    - 2.1330897739586018e-16
    effort: []
    positions:
    - 1.408428550907652
    - -0.14133685778154453
    - -1.992354463773467
    - 1.1880938964898358
    - 1.393956159644373
    - -2.8480658644866166
    time_from_start:
      nsecs: 532144092
      secs: 2
    velocities:
    - 0.016939115173737543
    - 0.18390783481812814
    - 0.09661153743907569
    - -0.05331347812570554
    - -0.08752309119497327
    - 0.392
  - accelerations:
    - -3.852893404212716e-15
    - -5.332724434896493e-15
    - -3.2529619052868606e-15
    - 5.066088213151668e-15
    - 2.986325683542036e-15
    - -2.133089773958597e-16
    effort: []
    positions:
    - 1.412836756298783
    - -0.09347700792507796
    - -1.9672124480414608
    - 1.174219691179629
    - 1.3711793050981393
    - -2.746052477388192
    time_from_start:
      nsecs: 792382324
      secs: 2
    velocities:
    - 0.016939115173737508
    - 0.18390783481812775
    - 0.09661153743907547
    - -0.05331347812570543
    - -0.0875230911949735
    - 0.392
  - accelerations:
    - 3.852893404212716e-15
    - 6.1859603444799316e-15
    - 3.2529619052868606e-15
    - -1.8131263078648078e-15
    - -2.986325683542036e-15
    - 2.133089773958597e-16
    effort: []
    positions:
    - 1.4172449616899137
    - -0.04561715806861133
    - -1.9420704323094546
    - 1.1603454858694224
    - 1.3484024505519057
    - -2.644039090289766
    time_from_start:
      nsecs: 52620556
      secs: 3
    velocities:
    - 0.016939115173737508
    - 0.18390783481812786
    - 0.09661153743907547
    - -0.053313478125705006
    - -0.0875230911949735
    - 0.392
  - accelerations:
    - -3.5729253713806576e-15
    - -4.799451991406854e-15
    - 1.6531445748179164e-15
    - 9.332267761068882e-16
    - 1.5464900861199863e-15
    - -2.1330897739586018e-16
    effort: []
    positions:
    - 1.4216531670810446
    - 0.0022426917878553
    - -1.9169284165774485
    - 1.1464712805592159
    - 1.325625596005672
    - -2.5420257031913414
    time_from_start:
      nsecs: 312858789
      secs: 3
    velocities:
    - 0.016939115173737543
    - 0.18390783481812806
    - 0.0966115374390761
    - -0.053313478125705124
    - -0.0875230911949737
    - 0.392
  - accelerations:
    - 3.2796255274613423e-15
    - 3.199634660937895e-15
    - -3.306289149635825e-15
    - -3.2796255274613423e-15
    - 0.0
    - 0.0
    effort: []
    positions:
    - 1.4260613724721753
    - 0.05010254164432182
    - -1.8917864008454421
    - 1.1325970752490093
    - 1.3028487414594383
    - -2.440012316092916
    time_from_start:
      nsecs: 573097021
      secs: 3
    velocities:
    - 0.016939115173737505
    - 0.18390783481812784
    - 0.0966115374390759
    - -0.05331347812570543
    - -0.08752309119497349
    - 0.392
  - accelerations:
    - -3.2796255274613423e-15
    - -3.199634660937895e-15
    - 0.0
    - 3.2796255274613423e-15
    - 0.0
    - 0.0
    effort: []
    positions:
    - 1.4304695778633063
    - 0.09796239150078856
    - -1.866644385113436
    - 1.1187228699388025
    - 1.2800718869132046
    - -2.337998928994491
    time_from_start:
      nsecs: 833335254
      secs: 3
    velocities:
    - 0.016939115173737505
    - 0.18390783481812784
    - 0.09661153743907547
    - -0.05331347812570543
    - -0.08752309119497349
    - 0.392
  - accelerations:
    - 3.2796255274613423e-15
    - 1.5998173304689476e-15
    - 3.306289149635825e-15
    - 0.0
    - 3.25296190528686e-15
    - 0.0
    effort: []
    positions:
    - 1.434877783254437
    - 0.14582224135725508
    - -1.8415023693814299
    - 1.104848664628596
    - 1.257295032366971
    - -2.2359855418960657
    time_from_start:
      nsecs: 93573486
      secs: 4
    velocities:
    - 0.016939115173737505
    - 0.1839078348181276
    - 0.0966115374390759
    - -0.053313478125705
    - -0.08752309119497306
    - 0.392
  - accelerations:
    - -2.9863256835420424e-15
    - 3.1996346609379026e-15
    - -1.6531445748179164e-15
    - -9.332267761068882e-16
    - -4.799451991406854e-15
    - 2.1330897739586018e-16
    effort: []
    positions:
    - 1.439285988645568
    - 0.1936820912137217
    - -1.8163603536494235
    - 1.0909744593183894
    - 1.2345181778207375
    - -2.1339721547976405
    time_from_start:
      nsecs: 353811718
      secs: 4
    velocities:
    - 0.016939115173737543
    - 0.18390783481812825
    - 0.0966115374390761
    - -0.053313478125705124
    - -0.08752309119497327
    - 0.392
  - accelerations:
    - 2.70635765070997e-15
    - -6.1859603444799316e-15
    - -3.2529619052868606e-15
    - -1.4664992195965355e-15
    - 2.986325683542036e-15
    - -2.133089773958597e-16
    effort: []
    positions:
    - 1.4436941940366987
    - 0.24154194107018834
    - -1.7912183379174174
    - 1.0771002540081829
    - 1.2117413232745038
    - -2.0319587676992157
    time_from_start:
      nsecs: 614049951
      secs: 4
    velocities:
    - 0.016939115173737508
    - 0.18390783481812786
    - 0.09661153743907547
    - -0.05331347812570543
    - -0.0875230911949735
    - 0.392
  - accelerations:
    - -2.85300757266962e-15
    - 4.4794885253130484e-15
    - 2.3997259957034186e-15
    - 1.9731080409116997e-15
    - -2.186417018307559e-15
    - 0.0
    effort: []
    positions:
    - 1.4481023994278297
    - 0.28940179092665497
    - -1.7660763221854112
    - 1.063226048697976
    - 1.18896446872827
    - -1.92994538060079
    time_from_start:
      nsecs: 874288183
      secs: 4
    velocities:
    - 0.016939115173737487
    - 0.18390783481812764
    - 0.09661153743907536
    - -0.05331347812570537
    - -0.0875230911949734
    - 0.392
  - accelerations:
    - 3.2796255274613494e-15
    - -1.599817330468951e-15
    - 0.0
    - 0.0
    - 3.306289149635832e-15
    - 0.0
    effort: []
    positions:
    - 1.4525106048189604
    - 0.3372616407831216
    - -1.740934306453405
    - 1.0493518433877695
    - 1.1661876141820364
    - -1.827931993502365
    time_from_start:
      nsecs: 134526415
      secs: 5
    velocities:
    - 0.016939115173737543
    - 0.183907834818128
    - 0.09661153743907568
    - -0.05331347812570511
    - -0.08752309119497326
    - 0.392
  - accelerations:
    - -3.4262754494209995e-15
    - 1.0665448869792995e-16
    - -7.999086652344747e-16
    - 4.266179547917198e-16
    - -2.559707728750319e-15
    - 0.0
    effort: []
    positions:
    - 1.4569188102100914
    - 0.3851214906395881
    - -1.715792290721399
    - 1.035477638077563
    - 1.143410759635803
    - -1.72591860640394
    time_from_start:
      nsecs: 394764648
      secs: 5
    velocities:
    - 0.016939115173737522
    - 0.18390783481812784
    - 0.09661153743907558
    - -0.053313478125705055
    - -0.08752309119497316
    - 0.392
  - accelerations:
    - 3.2796255274613423e-15
    - 0.0
    - 3.306289149635825e-15
    - -3.2796255274613423e-15
    - 0.0
    - 0.0
    effort: []
    positions:
    - 1.4613270156012221
    - 0.43298134049605475
    - -1.6906502749893928
    - 1.0216034327673564
    - 1.1206339050895693
    - -1.6239052193055148
    time_from_start:
      nsecs: 655002880
      secs: 5
    velocities:
    - 0.016939115173737505
    - 0.18390783481812784
    - 0.0966115374390759
    - -0.05331347812570543
    - -0.08752309119497349
    - 0.392
  - accelerations:
    - -3.132975605501692e-15
    - 1.4931628417710192e-15
    - -2.5063804844013538e-15
    - 2.8530075726696262e-15
    - -7.465814208855096e-16
    - 0.0
    effort: []
    positions:
    - 1.465735220992353
    - 0.4808411903525214
    - -1.6655082592573864
    - 1.0077292274571497
    - 1.0978570505433356
    - -1.5218918322070896
    time_from_start:
      nsecs: 915241113
      secs: 5
    velocities:
    - 0.016939115173737522
    - 0.18390783481812803
    - 0.096611537439076
    - -0.053313478125705485
    - -0.08752309119497359
    - 0.392
  - accelerations:
    - -0.9927636943430252
    - -0.8014012861010598
    - 0.9489338906681709
    - -0.5569541606218739
    - -0.5444770242380088
    - -0.9369577243952945
    effort: []
    positions:
    - 1.4701434263834838
    - 0.528701040208988
    - -1.6403662435253803
    - 0.9938550221469431
    - 1.075080195997102
    - -1.4198784451086646
    time_from_start:
      nsecs: 175479345
      secs: 6
    velocities:
    - -0.09677553624817177
    - 0.09211250787644479
    - 0.20530576871953787
    - -0.11710897003781645
    - -0.14988940794413372
    - 0.28467756100087444
  - accelerations:
    - -3.786077659399176e-15
    - -2.8280554044383603e-15
    - 0.0
    - -6.1699043338356945e-15
    - -6.730804727820758e-15
    - 8.834181205264744e-15
    effort: []
    positions:
    - 1.4284798698385017
    - 0.5287638216904276
    - -1.5782143831468363
    - 0.9580475416980019
    - 1.0330671763611647
    - -1.3847735063186253
    time_from_start:
      nsecs: 373415206
      secs: 6
    velocities:
    - -0.21049018767008104
    - 0.00031718093476107683
    - 0.31400000000000006
    - -0.1809044619499284
    - -0.21225572469329443
    - 0.17735512200174974
  - accelerations:
    - 9.535306697746073e-15
    - 2.8280554044383603e-15
    - 0.0
    - 6.1699043338356945e-15
    - 3.9263027578954416e-15
    - -8.834181205264744e-15
    effort: []
    positions:
    - 1.3868163132935196
    - 0.528826603171867
    - -1.5160625227682925
    - 0.9222400612490605
    - 0.9910541567252275
    - -1.3496685675285858
    time_from_start:
      nsecs: 571351067
      secs: 6
    velocities:
    - -0.21049018767008046
    - 0.00031718093476107683
    - 0.31400000000000006
    - -0.1809044619499284
    - -0.2122557246932947
    - 0.17735512200174974
  - accelerations:
    - -5.749229038346887e-15
    - -2.833806824493866e-15
    - 0.0
    - -2.9447270684215763e-15
    - 2.8045019699253104e-15
    - 5.609003939850621e-15
    effort: []
    positions:
    - 1.3451527567485377
    - 0.5288893846533066
    - -1.4539106623897484
    - 0.8864325808001193
    - 0.9490411370892902
    - -1.3145636287385465
    time_from_start:
      nsecs: 769286928
      secs: 6
    velocities:
    - -0.2104901876700801
    - 0.0003171809347610763
    - 0.31400000000000006
    - -0.1809044619499281
    - -0.21225572469329404
    - 0.1773551220017494
  - accelerations:
    - -3.786077659399176e-15
    - 2.839558244549382e-15
    - 0.0
    - -4.2067529548879737e-16
    - -6.730804727820758e-15
    - -2.3838266744365184e-15
    effort: []
    positions:
    - 1.3034892002035556
    - 0.528952166134746
    - -1.3917588020112044
    - 0.850625100351178
    - 0.907028117453353
    - -1.279458689948507
    time_from_start:
      nsecs: 967222789
      secs: 6
    velocities:
    - -0.21049018767008104
    - 0.00031718093476107683
    - 0.31400000000000006
    - -0.18090446194992843
    - -0.21225572469329443
    - 0.17735512200174974
  - accelerations:
    - 9.535306697746073e-15
    - -2.839558244549382e-15
    - 0.0
    - 3.365402363910379e-15
    - 3.9263027578954416e-15
    - 2.3838266744365184e-15
    effort: []
    positions:
    - 1.2618256436585735
    - 0.5290149476161856
    - -1.3296069416326606
    - 0.8148176199022368
    - 0.8650150978174157
    - -1.2443537511584677
    time_from_start:
      nsecs: 165158650
      secs: 7
    velocities:
    - -0.21049018767008046
    - 0.00031718093476107683
    - 0.31400000000000006
    - -0.18090446194992812
    - -0.2122557246932947
    - 0.17735512200174974
  - accelerations:
    - -9.535306697746073e-15
    - 2.839558244549382e-15
    - 0.0
    - -3.365402363910379e-15
    - -1.1218007879701263e-15
    - -2.3838266744365184e-15
    effort: []
    positions:
    - 1.2201620871135916
    - 0.5290777290976251
    - -1.2674550812541165
    - 0.7790101394532956
    - 0.8230020781814784
    - -1.2092488123684282
    time_from_start:
      nsecs: 363094512
      secs: 7
    velocities:
    - -0.21049018767008046
    - 0.00031718093476107683
    - 0.31400000000000006
    - -0.18090446194992812
    - -0.21225572469329443
    - 0.17735512200174974
  - accelerations:
    - 3.786077659399176e-15
    - -2.839558244549382e-15
    - 0.0
    - 4.2067529548879737e-16
    - 3.9263027578954416e-15
    - -3.225177265414113e-15
    effort: []
    positions:
    - 1.1784985305686095
    - 0.5291405105790646
    - -1.2053032208755727
    - 0.7432026590043543
    - 0.7809890585455412
    - -1.174143873578389
    time_from_start:
      nsecs: 561030373
      secs: 7
    velocities:
    - -0.21049018767008104
    - 0.00031718093476107683
    - 0.31400000000000006
    - -0.18090446194992843
    - -0.21225572469329415
    - 0.1773551220017492
  - accelerations:
    - 0.0
    - 2.833806824493866e-15
    - 0.0
    - 0.0
    - -2.8045019699253104e-15
    - 5.609003939850621e-15
    effort: []
    positions:
    - 1.1368349740236274
    - 0.5292032920605041
    - -1.1431513604970287
    - 0.707395178555413
    - 0.7389760389096041
    - -1.1390389347883496
    time_from_start:
      nsecs: 758966234
      secs: 7
    velocities:
    - -0.21049018767008065
    - 0.0003171809347610763
    - 0.31400000000000006
    - -0.18090446194992837
    - -0.21225572469329404
    - 0.1773551220017494
  - accelerations:
    - 0.0
    - -2.833806824493866e-15
    - 0.0
    - 2.9447270684215763e-15
    - 0.0
    - 0.0
    effort: []
    positions:
    - 1.0951714174786453
    - 0.5292660735419437
    - -1.0809995001184847
    - 0.6715876981064717
    - 0.6969630192736668
    - -1.10393399599831
    time_from_start:
      nsecs: 956902095
      secs: 7
    velocities:
    - -0.21049018767008065
    - 0.0003171809347610763
    - 0.31400000000000006
    - -0.1809044619499281
    - -0.21225572469329432
    - 0.17735512200174997
  - accelerations:
    - 1.8229262804514553e-15
    - 2.839558244549382e-15
    - 0.0
    - -3.365402363910379e-15
    - -1.1218007879701263e-15
    - -2.3838266744365184e-15
    effort: []
    positions:
    - 1.0535078609336632
    - 0.5293288550233831
    - -1.0188476397399406
    - 0.6357802176575305
    - 0.6549499996377295
    - -1.0688290572082706
    time_from_start:
      nsecs: 154837956
      secs: 8
    velocities:
    - -0.2104901876700805
    - 0.00031718093476107683
    - 0.31400000000000006
    - -0.18090446194992812
    - -0.21225572469329443
    - 0.17735512200174974
  - accelerations:
    - -3.645852560902914e-15
    - -2.8368194730943798e-15
    - 0.0
    - 1.682701181955191e-15
    - -8.413505909775955e-16
    - 1.2620258864663933e-15
    effort: []
    positions:
    - 1.0118443043886813
    - 0.5293916365048227
    - -0.9566957793613968
    - 0.5999727372085892
    - 0.6129369800017923
    - -1.0337241184182313
    time_from_start:
      nsecs: 352773817
      secs: 8
    velocities:
    - -0.21049018767008065
    - 0.0003171809347610771
    - 0.31400000000000006
    - -0.1809044619499283
    - -0.21225572469329462
    - 0.17735512200174963
  - accelerations:
    - 1.8229262804514534e-15
    - 2.8310680530388634e-15
    - 0.0
    - 1.6827011819551877e-15
    - 4.767653348873032e-15
    - -1.6827011819551877e-15
    effort: []
    positions:
    - 0.9701807478436992
    - 0.5294544179862621
    - -0.8945439189828529
    - 0.564165256759648
    - 0.570923960365855
    - -0.9986191796281919
    time_from_start:
      nsecs: 550709678
      secs: 8
    velocities:
    - -0.21049018767008082
    - 0.0003171809347610765
    - 0.31400000000000006
    - -0.18090446194992796
    - -0.21225572469329423
    - 0.17735512200174958
  - accelerations:
    - 9.815756894738596e-16
    - 2.7387714550051883e-18
    - 0.0
    - -4.627428250376766e-15
    - -4.767653348873032e-15
    - -1.2620258864663907e-15
    effort: []
    positions:
    - 0.9285171912987171
    - 0.5295171994677017
    - -0.8323920586043089
    - 0.5283577763107068
    - 0.5289109407299178
    - -0.9635142408381525
    time_from_start:
      nsecs: 748645539
      secs: 8
    velocities:
    - -0.21049018767008054
    - 0.000317180934761357
    - 0.31400000000000006
    - -0.18090446194992826
    - -0.21225572469329423
    - 0.1773551220017493
  - accelerations:
    - -2.8045019699253155e-15
    - -2.833806824493871e-15
    - 0.0
    - 2.9447270684215814e-15
    - 2.8045019699253155e-15
    - 5.749229038346897e-15
    effort: []
    positions:
    - 0.8868536347537351
    - 0.5295799809491413
    - -0.770240198225765
    - 0.49255029586176546
    - 0.48689792109398056
    - -0.9284093020481132
    time_from_start:
      nsecs: 946581400
      secs: 8
    velocities:
    - -0.21049018767008074
    - 0.00031718093476107683
    - 0.31400000000000006
    - -0.18090446194992843
    - -0.21225572469329443
    - 0.17735512200174974
  - accelerations:
    - 2.8045019699253155e-15
    - 2.833806824493871e-15
    - 0.0
    - -2.9447270684215814e-15
    - -2.8045019699253155e-15
    - -5.749229038346897e-15
    effort: []
    positions:
    - 0.845190078208753
    - 0.5296427624305807
    - -0.708088337847221
    - 0.45674281541282424
    - 0.4448849014580434
    - -0.8933043632580737
    time_from_start:
      nsecs: 144517261
      secs: 9
    velocities:
    - -0.21049018767008074
    - 0.00031718093476107683
    - 0.31400000000000006
    - -0.18090446194992843
    - -0.21225572469329443
    - 0.17735512200174974
  - accelerations:
    - -9.815756894738596e-16
    - -2.8365455959488738e-15
    - 0.0
    - 4.627428250376766e-15
    - 4.767653348873032e-15
    - 1.2620258864663907e-15
    effort: []
    positions:
    - 0.803526521663771
    - 0.5297055439120203
    - -0.6459364774686771
    - 0.4209353349638829
    - 0.4028718818221061
    - -0.8581994244680344
    time_from_start:
      nsecs: 342453122
      secs: 9
    velocities:
    - -0.21049018767008054
    - 0.0003171809347610765
    - 0.31400000000000006
    - -0.18090446194992826
    - -0.21225572469329423
    - 0.1773551220017493
  - accelerations:
    - -9.815756894738604e-16
    - 2.839558244549382e-15
    - 0.0
    - -6.1699043338356945e-15
    - -6.730804727820758e-15
    - 3.225177265414113e-15
    effort: []
    positions:
    - 0.7618629651187889
    - 0.5297683253934597
    - -0.5837846170901331
    - 0.3851278545149417
    - 0.3608588621861689
    - -0.823094485677995
    time_from_start:
      nsecs: 540388983
      secs: 9
    velocities:
    - -0.21049018767008076
    - 0.00031718093476107683
    - 0.31400000000000006
    - -0.1809044619499284
    - -0.21225572469329443
    - 0.17735512200174974
  - accelerations:
    - 9.815756894738604e-16
    - -2.839558244549382e-15
    - 0.0
    - 6.1699043338356945e-15
    - 6.730804727820758e-15
    - -3.225177265414113e-15
    effort: []
    positions:
    - 0.7201994085738069
    - 0.5298311068748993
    - -0.5216327567115893
    - 0.34932037406600036
    - 0.31884584255023163
    - -0.7879895468879556
    time_from_start:
      nsecs: 738324844
      secs: 9
    velocities:
    - -0.21049018767008076
    - 0.00031718093476107683
    - 0.31400000000000006
    - -0.1809044619499284
    - -0.21225572469329443
    - 0.17735512200174974
  - accelerations:
    - 2.9447270684215763e-15
    - 2.833806824493866e-15
    - 0.0
    - 0.0
    - -2.8045019699253104e-15
    - 0.0
    effort: []
    positions:
    - 0.6785358520288248
    - 0.5298938883563388
    - -0.45948089633304523
    - 0.31351289361705914
    - 0.27683282291429445
    - -0.7528846080979162
    time_from_start:
      nsecs: 936260706
      secs: 9
    velocities:
    - -0.21049018767008038
    - 0.0003171809347610763
    - 0.31400000000000006
    - -0.1809044619499278
    - -0.21225572469329404
    - 0.1773551220017494
  - accelerations:
    - -6.730804727820758e-15
    - -2.8280554044383603e-15
    - 0.0
    - -6.1699043338356945e-15
    - -3.9263027578954416e-15
    - 3.225177265414113e-15
    effort: []
    positions:
    - 0.6368722954838428
    - 0.5299566698377783
    - -0.3973290359545012
    - 0.2777054131681179
    - 0.23481980327835716
    - -0.7177796693078768
    time_from_start:
      nsecs: 134196567
      secs: 10
    velocities:
    - -0.21049018767008074
    - 0.00031718093476107683
    - 0.31400000000000006
    - -0.1809044619499284
    - -0.2122557246932947
    - 0.17735512200174974
  - accelerations:
    - 6.730804727820758e-15
    - 2.8280554044383603e-15
    - 0.0
    - 6.1699043338356945e-15
    - 6.730804727820758e-15
    - -3.225177265414113e-15
    effort: []
    positions:
    - 0.5952087389388607
    - 0.5300194513192178
    - -0.3351771755759574
    - 0.2418979327191766
    - 0.19280678364241988
    - -0.6826747305178374
    time_from_start:
      nsecs: 332132428
      secs: 10
    velocities:
    - -0.21049018767008074
    - 0.00031718093476107683
    - 0.31400000000000006
    - -0.1809044619499284
    - -0.21225572469329443
    - 0.17735512200174974
  - accelerations:
    - -2.9447270684215763e-15
    - -2.833806824493866e-15
    - 0.0
    - 0.0
    - -2.8045019699253104e-15
    - 0.0
    effort: []
    positions:
    - 0.5535451823938787
    - 0.5300822328006574
    - -0.27302531519741335
    - 0.20609045227023537
    - 0.1507937640064827
    - -0.647569791727798
    time_from_start:
      nsecs: 530068289
      secs: 10
    velocities:
    - -0.21049018767008038
    - 0.0003171809347610763
    - 0.31400000000000006
    - -0.1809044619499278
    - -0.21225572469329404
    - 0.1773551220017494
  - accelerations:
    - -9.815756894738604e-16
    - 2.839558244549382e-15
    - 0.0
    - -6.1699043338356945e-15
    - -3.9263027578954416e-15
    - 3.225177265414113e-15
    effort: []
    positions:
    - 0.5118816258488966
    - 0.5301450142820968
    - -0.21087345481886932
    - 0.17028297182129415
    - 0.10878074437054541
    - -0.6124648529377587
    time_from_start:
      nsecs: 728004150
      secs: 10
    velocities:
    - -0.21049018767008076
    - 0.00031718093476107683
    - 0.31400000000000006
    - -0.1809044619499284
    - -0.2122557246932947
    - 0.17735512200174974
  - accelerations:
    - 9.815756894738604e-16
    - -2.839558244549382e-15
    - 0.0
    - 6.1699043338356945e-15
    - 6.730804727820758e-15
    - -3.225177265414113e-15
    effort: []
    positions:
    - 0.47021806930391463
    - 0.5302077957635364
    - -0.1487215944403255
    - 0.13447549137235282
    - 0.06676772473460812
    - -0.5773599141477193
    time_from_start:
      nsecs: 925940011
      secs: 10
    velocities:
    - -0.21049018767008076
    - 0.00031718093476107683
    - 0.31400000000000006
    - -0.1809044619499284
    - -0.21225572469329443
    - 0.17735512200174974
  - accelerations:
    - 0.0
    - 2.833806824493866e-15
    - 0.0
    - 0.0
    - 0.0
    - -2.8045019699253104e-15
    effort: []
    positions:
    - 0.4285545127589325
    - 0.5302705772449758
    - -0.08656973406178148
    - 0.0986680109234116
    - 0.024754705098670948
    - -0.5422549753576799
    time_from_start:
      nsecs: 123875872
      secs: 11
    velocities:
    - -0.21049018767008065
    - 0.0003171809347610763
    - 0.31400000000000006
    - -0.1809044619499278
    - -0.21225572469329376
    - 0.17735512200174913
  - accelerations:
    - 1.8229262804514553e-15
    - 5.751420055510901e-18
    - 0.0
    - -6.1699043338356945e-15
    - -3.9263027578954416e-15
    - 6.029679235339429e-15
    effort: []
    positions:
    - 0.3868909562139504
    - 0.5303333587264154
    - -0.024417873683237445
    - 0.06286053047447038
    - -0.01725831453726623
    - -0.5071500365676406
    time_from_start:
      nsecs: 321811733
      secs: 11
    velocities:
    - -0.2104901876700805
    - 0.0003171809347613573
    - 0.31400000000000006
    - -0.1809044619499284
    - -0.21225572469329415
    - 0.17735512200174947
  - accelerations:
    - -1.8229262804514553e-15
    - -2.839558244549382e-15
    - 0.0
    - 6.1699043338356945e-15
    - -1.6827011819551895e-15
    - -3.225177265414113e-15
    effort: []
    positions:
    - 0.34522739966896854
    - 0.530396140207855
    - 0.037733986695306365
    - 0.027053050025529046
    - -0.059271334173203405
    - -0.4720450977776012
    time_from_start:
      nsecs: 519747594
      secs: 11
    velocities:
    - -0.2104901876700805
    - 0.00031718093476107683
    - 0.31400000000000006
    - -0.1809044619499284
    - -0.2122557246932947
    - 0.17735512200174974
  - accelerations:
    - -3.786077659399176e-15
    - 2.839558244549382e-15
    - 0.0
    - -3.365402363910379e-15
    - 1.6827011819551895e-15
    - 3.225177265414113e-15
    effort: []
    positions:
    - 0.30356384312398643
    - 0.5304589216892944
    - 0.0998858470738504
    - -0.008754430423412174
    - -0.1012843538091408
    - -0.4369401589875618
    time_from_start:
      nsecs: 717683455
      secs: 11
    velocities:
    - -0.21049018767008104
    - 0.00031718093476107683
    - 0.31400000000000006
    - -0.18090446194992812
    - -0.2122557246932947
    - 0.17735512200174974
  - accelerations:
    - 3.786077659399176e-15
    - -2.839558244549382e-15
    - 0.0
    - 3.365402363910379e-15
    - 3.9263027578954416e-15
    - -4.2067529548879737e-16
    effort: []
    positions:
    - 0.2619002865790043
    - 0.530521703170734
    - 0.1620377074523942
    - -0.044561910872353394
    - -0.14329737344507798
    - -0.4018352201975224
    time_from_start:
      nsecs: 915619316
      secs: 11
    velocities:
    - -0.21049018767008104
    - 0.00031718093476107683
    - 0.31400000000000006
    - -0.18090446194992812
    - -0.21225572469329415
    - 0.17735512200175002
  - accelerations:
    - 5.749229038346887e-15
    - 2.833806824493866e-15
    - 0.0
    - -5.749229038346887e-15
    - -5.609003939850621e-15
    - -5.609003939850621e-15
    effort: []
    positions:
    - 0.22023673003402222
    - 0.5305844846521734
    - 0.22418956783093824
    - -0.08036939132129461
    - -0.18531039308101516
    - -0.36673028140748287
    time_from_start:
      nsecs: 113555177
      secs: 12
    velocities:
    - -0.2104901876700801
    - 0.0003171809347610763
    - 0.31400000000000006
    - -0.18090446194992837
    - -0.21225572469329432
    - 0.1773551220017494
  - accelerations:
    - -9.535306697746073e-15
    - -2.8280554044383603e-15
    - 0.0
    - 2.3838266744365184e-15
    - 1.6827011819551895e-15
    - 3.225177265414113e-15
    effort: []
    positions:
    - 0.17857317348904034
    - 0.530647266133613
    - 0.2863414282094823
    - -0.11617687177023606
    - -0.22732341271695256
    - -0.3316253426174436
    time_from_start:
      nsecs: 311491038
      secs: 12
    velocities:
    - -0.21049018767008046
    - 0.00031718093476107683
    - 0.31400000000000006
    - -0.1809044619499287
    - -0.2122557246932947
    - 0.1773551220017492
  - accelerations:
    - 3.786077659399176e-15
    - 2.8280554044383603e-15
    - 0.0
    - -2.3838266744365184e-15
    - -1.6827011819551895e-15
    - 2.3838266744365184e-15
    effort: []
    positions:
    - 0.13690961694405823
    - 0.5307100476150525
    - 0.3484932885880261
    - -0.15198435221917728
    - -0.26933643235288973
    - -0.2965204038274043
    time_from_start:
      nsecs: 509426900
      secs: 12
    velocities:
    - -0.21049018767008104
    - 0.00031718093476107683
    - 0.31400000000000006
    - -0.1809044619499287
    - -0.2122557246932947
    - 0.17735512200174974
  - accelerations:
    - 0.0
    - -2.833806824493866e-15
    - 0.0
    - 1.1358232978197507e-14
    - 1.1218007879701242e-14
    - -5.609003939850621e-15
    effort: []
    positions:
    - 0.09524606039907613
    - 0.530772829096492
    - 0.4106451489665701
    - -0.18779183266811872
    - -0.31134945198882713
    - -0.2614154650373648
    time_from_start:
      nsecs: 707362761
      secs: 12
    velocities:
    - -0.21049018767008065
    - 0.0003171809347610763
    - 0.31400000000000006
    - -0.18090446194992782
    - -0.21225572469329376
    - 0.1773551220017494
  - accelerations:
    - 0.0
    - 2.833806824493866e-15
    - 0.0
    - -1.1358232978197507e-14
    - -1.1218007879701242e-14
    - 5.609003939850621e-15
    effort: []
    positions:
    - 0.05358250385409402
    - 0.5308356105779315
