joint_trajectory:
  header:
    frame_id: base
    seq: 0
    stamp:
      nsecs: 0
      secs: 0
  joint_names:
  - joint_1
  - joint_2
  - joint_3
  - joint_4
  - joint_5
  - joint_6
  points:
  - accelerations:
    - -0.21870267731953588
    - 0.0
    - 0.0
    - 0.0
    - 0.0
    - 0.0
    effort: []
    positions:
    - -1.6105083197057222
    - -0.744912322452873
    - -1.3511980554194152
    - 2.141153420074207
    - -1.5300528915938834
    - 0.5946786782505682
    time_from_start:
      nsecs: 0
      secs: 0
    velocities:
    - 0.0
    - 0.0
    - 0.0
    - 0.0
    - 0.0
    - 0.0
  - accelerations:
    - 0.0
    - -3.249322075002106e-16
    - 0.0
    - 0.0
    - 0.0
    - 0.0
    effort: []
    positions:
    - -1.6482207450842306
    - -0.727590141793137
    - -1.3454160417687395
    - 2.117597305311986
    - -1.4923695401759047
    - 0.6637404159523361
    time_from_start:
      nsecs: 587259674
      secs: 0
    velocities:
    - -0.06421763152940552
    - 0.029496628862450414
    - 0.009845752915395443
    - -0.040111922871096495
    - 0.06416812368508998
    - 0.1176
  - accelerations:
    - 0.0
    - 3.249322075002106e-16
    - 6.439565566822356e-16
    - 0.0
    - 0.0
    - 0.0
    effort: []
    positions:
    - -1.685933170462739
    - -0.7102679611334011
    - -1.3396340281180639
    - 2.0940411905497647
    - -1.454686188757926
    - 0.7328021536541041
    time_from_start:
      nsecs: 174519349
      secs: 1
    velocities:
    - -0.06421763152940552
    - 0.029496628862450414
    - 0.009845752915395632
    - -0.040111922871096495
    - 0.06416812368508998
    - 0.1176
  - accelerations:
    - 1.8905146618194057e-16
    - -4.076422239548094e-16
    - -6.734958482731633e-16
    - 1.1815716636371287e-16
    - -1.8905146618194057e-16
    - -2.3631433272742572e-17
    effort: []
    positions:
    - -1.7236455958412473
    - -0.6929457804736651
    - -1.333852014467388
    - 2.0704850757875435
    - -1.4170028373399475
    - 0.801863891355872
    time_from_start:
      nsecs: 761779023
      secs: 1
    velocities:
    - -0.06421763152940546
    - 0.029496628862450393
    - 0.009845752915395623
    - -0.04011192287109646
    - 0.06416812368508992
    - 0.11759999999999998
  - accelerations:
    - -1.8905146618194057e-16
    - 4.076422239548094e-16
    - 2.953929159092822e-17
    - -1.1815716636371287e-16
    - 1.8905146618194057e-16
    - 2.3631433272742572e-17
    effort: []
    positions:
    - -1.7613580212197557
    - -0.6756235998139292
    - -1.3280700008167123
    - 2.0469289610253223
    - -1.3793194859219688
    - 0.87092562905764
    time_from_start:
      nsecs: 349038697
      secs: 2
    velocities:
    - -0.06421763152940546
    - 0.029496628862450393
    - 0.009845752915395434
    - -0.04011192287109646
    - 0.06416812368508992
    - 0.11759999999999998
  - accelerations:
    - 0.21870267731953588
    - -0.10045514838342624
    - -0.03353117316133977
    - 0.1366071079766703
    - -0.21853407100624994
    - -0.4005042577909524
    effort: []
    positions:
    - -1.799070446598264
    - -0.6583014191541932
    - -1.3222879871660367
    - 2.023372846263101
    - -1.3416361345039902
    - 0.939987366759408
    time_from_start:
      nsecs: 936298372
      secs: 2
    velocities:
    - 0.0
    - 0.0
    - 0.0
    - 0.0
    - 0.0
    - 0.0
multi_dof_joint_trajectory:
  header:
    frame_id: ''
    seq: 0
    stamp:
      nsecs: 0
      secs: 0
  joint_names: []
  points: []
---
joint_trajectory:
  header:
    frame_id: base
    seq: 0
    stamp:
      nsecs: 0
      secs: 0
  joint_names:
  - joint_1
  - joint_2
  - joint_3
  - joint_4
  - joint_5
  - joint_6
  points:
  - accelerations:
    - -2.6750590431625463e-05
    - 0.0
    - 0.0
    - 0.0
    - 0.0
    - 0.0
    effort: []
    positions:
    - -1.7988950088957474
    - -0.6584120512987722
    - -1.3222829170419346
    - 2.0234994904883594
    - -1.3418430363002394
    - 0.9396006499932709
    time_from_start:
      nsecs: 0
      secs: 0
    velocities:
    - 0.0
    - 0.0
    - 0.0
    - 0.0
    - 0.0
    - 0.0
  - accelerations:
    - -2.724895207460834e-16
    - -4.765329704609017e-16
    - 7.686015652595188e-17
    - 0.0
    - 2.709320517539804e-16
    - 2.4018798914359962e-18
    effort: []
    positions:
    - -1.79890591027231
    - -0.725802305833394
    - -1.3613275306152652
    - 2.1296681427502064
    - -1.3421283315507841
    - 0.9400727745161346
    time_from_start:
      nsecs: 902794662
      secs: 0
    velocities:
    - -1.2075145124843817e-05
    - -0.07464627048034517
    - -0.04324860924954725
    - 0.1176
    - -0.00031601344416904554
    - 0.0005229589215452953
  - accelerations:
    - 2.724895207460834e-16
    - 4.765329704609017e-16
    - -7.686015652595188e-17
    - 0.0
    - -2.709320517539804e-16
    - -2.4018798914359962e-18
    effort: []
    positions:
    - -1.7989168116488727
    - -0.7931925603680159
    - -1.4003721441885957
    - 2.235836795012053
    - -1.3424136268013287
    - 0.9405448990389983
    time_from_start:
      nsecs: 805589324
      secs: 1
    velocities:
    - -1.2075145124843817e-05
    - -0.07464627048034517
    - -0.04324860924954725
    - 0.1176
    - -0.00031601344416904554
    - 0.0005229589215452953
  - accelerations:
    - 2.6750590431625463e-05
    - 0.165367106419287
    - 0.09581051166031404
    - -0.260524358280281
    - 0.0007000782291676349
    - -0.0011585334816542141
    effort: []
    positions:
    - -1.7989277130254353
    - -0.8605828149026377
    - -1.4394167577619263
    - 2.3420054472739
    - -1.3426989220518735
    - 0.941017023561862
    time_from_start:
      nsecs: 708383986
      secs: 2
    velocities:
    - 0.0
    - 0.0
    - 0.0
    - 0.0
    - 0.0
    - 0.0
multi_dof_joint_trajectory:
  header:
    frame_id: ''
    seq: 0
    stamp:
      nsecs: 0
      secs: 0
  joint_names: []
  points: []
---
joint_trajectory:
  header:
    frame_id: base
    seq: 0
    stamp:
      nsecs: 0
      secs: 0
  joint_names:
  - joint_1
  - joint_2
  - joint_3
  - joint_4
  - joint_5
  - joint_6
  points:
  - accelerations:
    - -0.009532414004303805
    - 0.0
    - 0.0
    - 0.0
    - 0.0
    - 0.0
    effort: []
    positions:
    - -1.7989261678805013
    - -0.8604917161285761
    - -1.4393554785618177
    - 2.341858427728339
    - -1.342699775222918
    - 0.9410237101217547
    time_from_start:
      nsecs: 0
      secs: 0
    velocities:
    - 0.0
    - 0.0
    - 0.0
    - 0.0
    - 0.0
    - 0.0
  - accelerations:
    - 0.009532414004303805
    - 0.24992681194428906
    - -0.03885186722096001
    - -0.9250391320842483
    - -0.015022832936148789
    - 0.5466109915032162
    effort: []
    positions:
    - -1.7989406731817914
    - -0.8608720252198608
    - -1.4392963583809832
    - 2.3432660429777354
    - -1.3426769152508404
    - 0.9401919421019587
    time_from_start:
      nsecs: 55166690
      secs: 0
    velocities:
    - 0.0
    - 0.0
    - 0.0
    - 0.0
    - 0.0
    - 0.0
multi_dof_joint_trajectory:
  header:
    frame_id: ''
    seq: 0
    stamp:
      nsecs: 0
      secs: 0
  joint_names: []
  points: []
---
joint_trajectory:
  header:
    frame_id: base
    seq: 0
    stamp:
      nsecs: 0
      secs: 0
  joint_names:
  - joint_1
  - joint_2
  - joint_3
  - joint_4
  - joint_5
  - joint_6
  points:
  - accelerations:
    - -0.16520885613094277
    - 0.0
    - 0.0
    - 0.0
    - 0.0
    - 0.0
    effort: []
    positions:
    - -1.7989314942026815
    - -0.8607669538272358
    - -1.4393865043885172
    - 2.3428062467602984
    - -1.342699775222918
    - 0.9405492679735571
    time_from_start:
      nsecs: 0
      secs: 0
    velocities:
    - 0.0
    - 0.0
    - 0.0
    - 0.0
    - 0.0
    - 0.0
  - accelerations:
    - 0.16520885613094277
    - -0.2258457615725768
    - 0.24859047158318207
    - 0.8358472183494583
    - -0.7267866133061994
    - -0.7268928480060919
    effort: []
    positions:
    - -1.7990347958411732
    - -0.8606257372014251
    - -1.4395419428052545
    - 2.3422836089961594
    - -1.342245330771533
    - 0.9410037788512755
    time_from_start:
      nsecs: 35363231
      secs: 0
    velocities:
    - 0.0
    - 0.0
    - 0.0
    - 0.0
    - 0.0
    - 0.0
multi_dof_joint_trajectory:
  header:
    frame_id: ''
    seq: 0
    stamp:
      nsecs: 0
      secs: 0
  joint_names: []
  points: []
---
joint_trajectory:
  header:
    frame_id: base
    seq: 0
    stamp:
      nsecs: 0
      secs: 0
  joint_names:
  - joint_1
  - joint_2
  - joint_3
  - joint_4
  - joint_5
  - joint_6
  points:
  - accelerations:
    - -0.1452934039210009
    - 0.0
    - 0.0
    - 0.0
    - 0.0
    - 0.0
    effort: []
    positions:
    - -1.799019644834763
    - -0.8607202153501049
    - -1.4394549476285323
    - 2.3424294094660523
    - -1.3422973715822069
    - 0.9408914841736322
    time_from_start:
      nsecs: 0
      secs: 0
    velocities:
    - 0.0
    - 0.0
    - 0.0
    - 0.0
    - 0.0
    - 0.0
  - accelerations:
    - 0.1452934039210009
    - -0.015196265421134742
    - -0.3119921652048567
    - 0.04942517357726838
    - -0.7977806524090019
    - 0.2842071788998406
    effort: []
    positions:
    - -1.7991031185737718
    - -0.8607114848154802
    - -1.4392757023781062
    - 2.3424010137926885
    - -1.341839031890464
    - 0.9407282019100492
    time_from_start:
      nsecs: 33897446
      secs: 0
    velocities:
    - 0.0
    - 0.0
    - 0.0
    - 0.0
    - 0.0
    - 0.0
multi_dof_joint_trajectory:
  header:
    frame_id: ''
    seq: 0
    stamp:
      nsecs: 0
      secs: 0
  joint_names: []
  points: []
---
joint_trajectory:
  header:
    frame_id: base
    seq: 0
    stamp:
      nsecs: 0
      secs: 0
  joint_names:
  - joint_1
  - joint_2
  - joint_3
  - joint_4
  - joint_5
  - joint_6
  points:
  - accelerations:
    - 0.016532419317433465
    - 0.0
    - 0.0
    - 0.0
    - 0.0
    - 0.0
    effort: []
    positions:
    - -1.7990769027981997
    - -0.8606060323183677
    - -1.4394986234704095
    - 2.3422608313690505
    - -1.34208312027251
    - 0.9409613921522468
    time_from_start:
      nsecs: 0
      secs: 0
    velocities:
    - 0.0
    - 0.0
    - 0.0
    - 0.0
    - 0.0
    - 0.0
  - accelerations:
    - 0.0
    - -6.183806966409437e-17
    - 0.0
    - 0.0
    - 1.2238784621018678e-16
    - 0.0
    effort: []
    positions:
    - -1.7840891143556645
    - -0.846495075143959
    - -1.4386519980470063
    - 2.327535742945469
    - -1.3569132549096885
    - 0.7826096335933991
    time_from_start:
      nsecs: 346528559
      secs: 1
    velocities:
    - 0.011130687381581015
    - 0.010479508272045869
    - 0.000628746726265215
    - -0.010935593102173657
    - -0.011013605716819638
    - -0.11759999999999998
  - accelerations:
    - -0.016532419317433465
    - -0.015565222439062462
    - -0.0009338780406573251
    - 0.016242645620354136
    - 0.016358517822416836
    - 0.1746713787818212
    effort: []
    positions:
    - -1.7691013259131294
    - -0.8323841179695505
    - -1.437805372623603
    - 2.312810654521887
    - -1.3717433895468667
    - 0.6242578750345513
    time_from_start:
      nsecs: 693057118
      secs: 2
    velocities:
    - 0.0
    - 0.0
    - 0.0
    - 0.0
    - 0.0
    - 0.0
multi_dof_joint_trajectory:
  header:
    frame_id: ''
    seq: 0
    stamp:
      nsecs: 0
      secs: 0
  joint_names: []
  points: []
---
joint_trajectory:
  header:
    frame_id: base
    seq: 0
    stamp:
      nsecs: 0
      secs: 0
  joint_names:
  - joint_1
  - joint_2
  - joint_3
  - joint_4
  - joint_5
  - joint_6
  points:
  - accelerations:
    - 0.028681988186528763
    - 0.0
    - 0.0
    - 0.0
    - 0.0
    - 0.0
    effort: []
    positions:
    - -1.7690990299877227
    - -0.8323887753045421
    - -1.437800325643266
    - 2.312804938132229
    - -1.3717464737582488
    - 0.6243605407058829
    time_from_start:
      nsecs: 0
      secs: 0
    velocities:
    - 0.0
    - 0.0
    - 0.0
    - 0.0
    - 0.0
    - 0.0
  - accelerations:
    - 0.0
    - 1.6066979169173666e-16
    - -3.213395833834733e-16
    - 6.426791667669466e-16
    - 0.0
    - 0.0
    effort: []
    positions:
    - -1.759187224797759
    - -0.8268533694357416
    - -1.4368029500905597
    - 2.307514043958774
    - -1.3820771862852586
    - 0.5265931392904177
    time_from_start:
      nsecs: 831355454
      secs: 0
    velocities:
    - 0.011922463658273753
    - 0.006658290194342598
    - 0.0011996980926170598
    - -0.006364178098119051
    - -0.012426348410485379
    - -0.1176
  - accelerations:
    - -0.028681988186528763
    - -0.016017914264229136
    - -0.002886125511144727
    - 0.015310365899126384
    - 0.0298941886951272
    - 0.2829114776453978
    effort: []
    positions:
    - -1.749275419607795
    - -0.821317963566941
    - -1.4358055745378535
    - 2.302223149785319
    - -1.3924078988122683
    - 0.4288257378749526
    time_from_start:
      nsecs: 662710908
      secs: 1
    velocities:
    - 0.0
    - 0.0
    - 0.0
    - 0.0
    - 0.0
    - 0.0
multi_dof_joint_trajectory:
  header:
    frame_id: ''
    seq: 0
    stamp:
      nsecs: 0
      secs: 0
  joint_names: []
  points: []
---
joint_trajectory:
  header:
    frame_id: base
    seq: 0
    stamp:
      nsecs: 0
      secs: 0
  joint_names:
  - joint_1
  - joint_2
  - joint_3
  - joint_4
  - joint_5
  - joint_6
  points:
  - accelerations:
    - 0.041806709192914154
    - 0.0
    - 0.0
    - 0.0
    - 0.0
    - 0.0
    effort: []
    positions:
    - -1.749304552553491
    - -0.8213179480740556
    - -1.4357970958713084
    - 2.3022186064830548
    - -1.3924006195923582
    - 0.42895961783680703
    time_from_start:
      nsecs: 0
      secs: 0
    velocities:
    - 0.0
    - 0.0
    - 0.0
    - 0.0
    - 0.0
    - 0.0
  - accelerations:
    - 4.559141099678234e-16
    - 3.657065053217835e-18
    - -4.358002521751254e-16
    - -8.850097428787162e-16
    - 4.21781502804457e-16
    - -1.9504346950495122e-17
    effort: []
    positions:
    - -1.7387219217294088
    - -0.8183491538869226
    - -1.4342237434672538
    - 2.2973840242680206
    - -1.4025165926545085
    - 0.34528453502878964
    time_from_start:
      nsecs: 711522813
      secs: 0
    velocities:
    - 0.014873213663468676
    - 0.0041724511609730845
    - 0.0022112466042171104
    - -0.006794697410608014
    - -0.014217355898390276
    - -0.11760000000000001
  - accelerations:
    - -0.041806709192915105
    - -0.01172822876449954
    - -0.006215532555911565
    - 0.01909902897427376
    - 0.039963176552494074
    - 0.3305586211783205
    effort: []
    positions:
    - -1.7281392909053264
    - -0.8153803596997897
    - -1.4326503910631994
    - 2.292549442052986
    - -1.4126325657166585
    - 0.2616094522207723
    time_from_start:
      nsecs: 423045626
      secs: 1
    velocities:
    - 0.0
    - 0.0
    - 0.0
    - 0.0
    - 0.0
    - 0.0
multi_dof_joint_trajectory:
  header:
    frame_id: ''
    seq: 0
    stamp:
      nsecs: 0
      secs: 0
  joint_names: []
  points: []
---
joint_trajectory:
  header:
    frame_id: base
    seq: 0
    stamp:
      nsecs: 0
      secs: 0
  joint_names:
  - joint_1
  - joint_2
  - joint_3
  - joint_4
  - joint_5
  - joint_6
  points:
  - accelerations:
    - 0.1234412192394968
    - 0.0
    - 0.0
    - 0.0
    - 0.0
    - 0.0
    effort: []
    positions:
    - -1.7281494661183374
    - -0.8153774343674975
    - -1.4326368557637659
    - 2.2925601201576646
    - -1.412593772241775
    - 0.2619264205831462
    time_from_start:
      nsecs: 0
      secs: 0
    velocities:
    - 0.0
    - 0.0
    - 0.0
    - 0.0
    - 0.0
    - 0.0
  - accelerations:
    - -0.1234412192394968
    - -0.08550955193323122
    - -0.05397820705651367
    - 0.3607993642738766
    - 0.8780394160024095
    - 0.1922041863476028
    effort: []
    positions:
    - -1.7279447085778676
    - -0.8152355958013493
    - -1.4325473196672824
    - 2.291961645913106
    - -1.4140502159836936
    - 0.26160760279515777
    time_from_start:
      nsecs: 57597661
      secs: 0
    velocities:
    - 0.0
    - 0.0
    - 0.0
    - 0.0
    - 0.0
    - 0.0
multi_dof_joint_trajectory:
  header:
    frame_id: ''
    seq: 0
    stamp:
      nsecs: 0
      secs: 0
  joint_names: []
  points: []
---
joint_trajectory:
  header:
    frame_id: base
    seq: 0
    stamp:
      nsecs: 0
      secs: 0
  joint_names:
  - joint_1
  - joint_2
  - joint_3
  - joint_4
  - joint_5
  - joint_6
  points:
  - accelerations:
    - -0.16349279424529709
    - 0.0
    - 0.0
    - 0.0
    - 0.0
    - 0.0
    effort: []
    positions:
    - -1.7279521258815624
    - -0.8152632513357604
    - -1.432556028824682
    - 2.292027754255758
    - -1.4138984548598048
    - 0.2615842709620983
    time_from_start:
      nsecs: 0
      secs: 0
    velocities:
    - 0.0
    - 0.0
    - 0.0
    - 0.0
    - 0.0
    - 0.0
  - accelerations:
    - 0.16349279424529709
    - 0.11926902176103146
    - -0.050021741866376625
    - -0.4211319183362348
    - -0.8640279318538592
    - -0.06913607613954363
    effort: []
    positions:
    - -1.728202677311402
    - -0.8154460301797807
    - -1.432479370896083
    - 2.2926731356303764
    - -1.4125743388047414
    - 0.2616902214586338
    time_from_start:
      nsecs: 55362301
      secs: 0
    velocities:
    - 0.0
    - 0.0
    - 0.0
    - 0.0
    - 0.0
    - 0.0
multi_dof_joint_trajectory:
  header:
    frame_id: ''
    seq: 0
    stamp:
      nsecs: 0
      secs: 0
  joint_names: []
  points: []
---
joint_trajectory:
  header:
    frame_id: base
    seq: 0
    stamp:
      nsecs: 0
      secs: 0
  joint_names:
  - joint_1
  - joint_2
  - joint_3
  - joint_4
  - joint_5
  - joint_6
  points:
  - accelerations:
    - 0.0360731153189481
    - 0.0
    - 0.0
    - 0.0
    - 0.0
    - 0.0
    effort: []
    positions:
    - -1.7281545261244085
    - -0.8153930138598745
    - -1.4324128839160901
    - 2.292579294917513
    - -1.4127106850136295
    - 0.2616542455197401
    time_from_start:
      nsecs: 0
      secs: 0
    velocities:
    - 0.0
    - 0.0
    - 0.0
    - 0.0
    - 0.0
    - 0.0
  - accelerations:
    - -0.0360731153189481
    - -0.007599155024389532
    - 0.1630881990998359
    - -0.1324265962806403
    - 0.10490962959945027
    - 0.8842573704789126
    effort: []
    positions:
    - -1.728083016118383
    - -0.8153779495767712
    - -1.432736183913808
    - 2.2928418124908974
    - -1.4129186539727405
    - 0.25990132650146813
    time_from_start:
      nsecs: 62966069
      secs: 0
    velocities:
    - 0.0
    - 0.0
    - 0.0
    - 0.0
    - 0.0
    - 0.0
multi_dof_joint_trajectory:
  header:
    frame_id: ''
    seq: 0
    stamp:
      nsecs: 0
      secs: 0
  joint_names: []
  points: []
---
joint_trajectory:
  header:
    frame_id: base
    seq: 0
    stamp:
      nsecs: 0
      secs: 0
  joint_names:
  - joint_1
  - joint_2
  - joint_3
  - joint_4
  - joint_5
  - joint_6
  points:
  - accelerations:
    - 0.12519552092111014
    - 0.0
    - 0.0
    - 0.0
    - 0.0
    - 0.0
    effort: []
    positions:
    - -1.7280975344770808
    - -0.8153930138598745
    - -1.432754966958111
    - 2.2928392194399048
    - -1.4129117536759306
    - 0.2598812793135335
    time_from_start:
      nsecs: 0
      secs: 0
    velocities:
    - 0.0
    - 0.0
    - 0.0
    - 0.0
    - 0.0
    - 0.0
  - accelerations:
    - -0.12519552092111014
    - -0.47237708058534694
    - 0.9427274865967917
    - -0.5769133637570092
    - 0.31760579015542034
    - 0.6301062561055362
    effort: []
    positions:
    - -1.727020532880622
    - -0.8113293631303766
    - -1.4408648338337005
    - 2.297802149496933
    - -1.415643975567938
    - 0.2544607543716554
    time_from_start:
      nsecs: 131168265
      secs: 0
    velocities:
    - 0.0
    - 0.0
    - 0.0
    - 0.0
    - 0.0
    - 0.0
multi_dof_joint_trajectory:
  header:
    frame_id: ''
    seq: 0
    stamp:
      nsecs: 0
      secs: 0
  joint_names: []
  points: []
---
joint_trajectory:
  header:
    frame_id: base
    seq: 0
    stamp:
      nsecs: 0
      secs: 0
  joint_names:
  - joint_1
  - joint_2
  - joint_3
  - joint_4
  - joint_5
  - joint_6
  points:
  - accelerations:
    - 0.05502536883345772
    - 0.0
    - 0.0
    - 0.0
    - 0.0
    - 0.0
    effort: []
    positions:
    - -1.727396590478172
    - -0.812692768251616
    - -1.43806770701671
    - 2.2960909391308917
    - -1.414696737396556
    - 0.2563431033577951
    time_from_start:
      nsecs: 0
      secs: 0
    velocities:
    - 0.0
    - 0.0
    - 0.0
    - 0.0
    - 0.0
    - 0.0
  - accelerations:
    - -0.05502536883345772
    - -0.44632136987396376
    - 0.888692584822853
    - -0.1692232713045745
    - -0.22779999902914297
    - 0.6427602086635286
    effort: []
    positions:
    - -1.7272170460777232
    - -0.8112364490217698
    - -1.4409674563633852
    - 2.2966431042763964
    - -1.4139534399845617
    - 0.2542458162565278
    time_from_start:
      nsecs: 80782902
      secs: 0
    velocities:
    - 0.0
    - 0.0
    - 0.0
    - 0.0
    - 0.0
    - 0.0
multi_dof_joint_trajectory:
  header:
    frame_id: ''
    seq: 0
    stamp:
      nsecs: 0
      secs: 0
  joint_names: []
  points: []
---
joint_trajectory:
  header:
    frame_id: base
    seq: 0
    stamp:
      nsecs: 0
      secs: 0
  joint_names:
  - joint_1
  - joint_2
  - joint_3
  - joint_4
  - joint_5
  - joint_6
  points:
  - accelerations:
    - 0.05683837539852006
    - 0.0
    - 0.0
    - 0.0
    - 0.0
    - 0.0
    effort: []
    positions:
    - -1.727193923919217
    - -0.8111454050792526
    - -1.4410661600880301
    - 2.2966491376953724
    - -1.413969827577019
    - 0.25424350044389027
    time_from_start:
      nsecs: 0
      secs: 0
    velocities:
    - 0.0
    - 0.0
    - 0.0
    - 0.0
    - 0.0
    - 0.0
  - accelerations:
    - -0.05683837539852006
    - -0.03090655941135501
    - -0.09856578084348182
    - 0.2522598512903906
    - 0.32660015023940736
    - -0.9210074253934444
    effort: []
    positions:
    - -1.7270982465056548
    - -0.8110933793194407
    - -1.4409002419225176
    - 2.2962245025796113
    - -1.4145196015180368
    - 0.255793854543832
    time_from_start:
      nsecs: 58022827
      secs: 0
    velocities:
    - 0.0
    - 0.0
    - 0.0
    - 0.0
    - 0.0
    - 0.0
multi_dof_joint_trajectory:
  header:
    frame_id: ''
    seq: 0
    stamp:
      nsecs: 0
      secs: 0
  joint_names: []
  points: []
---
joint_trajectory:
  header:
    frame_id: base
    seq: 0
    stamp:
      nsecs: 0
      secs: 0
  joint_names:
  - joint_1
  - joint_2
  - joint_3
  - joint_4
  - joint_5
  - joint_6
  points:
  - accelerations:
    - 0.18589659068643294
    - 0.0
    - 0.0
    - 0.0
    - 0.0
    - 0.0
    effort: []
    positions:
    - -1.727193923919217
    - -0.8111505982433783
    - -1.4408857309241774
    - 2.296441411130346
    - -1.4142099115492897
    - 0.2550133537360049
    time_from_start:
      nsecs: 0
      secs: 0
    velocities:
    - 0.0
    - 0.0
    - 0.0
    - 0.0
    - 0.0
    - 0.0
  - accelerations:
    - -0.18589659068643294
    - 0.18566535626820124
    - -0.19458117663914332
    - -0.6111345349685717
    - 0.7805155926537155
    - -0.8769843302941974
    effort: []
    positions:
    - -1.7269633649367415
    - -0.8113808704364511
    - -1.440644400849596
    - 2.2971993731565328
    - -1.4151779491027698
    - 0.25610103702321774
    time_from_start:
      nsecs: 49804698
      secs: 0
    velocities:
    - 0.0
    - 0.0
    - 0.0
    - 0.0
    - 0.0
    - 0.0
multi_dof_joint_trajectory:
  header:
    frame_id: ''
    seq: 0
    stamp:
      nsecs: 0
      secs: 0
  joint_names: []
  points: []
---
joint_trajectory:
  header:
    frame_id: base
    seq: 0
    stamp:
      nsecs: 0
      secs: 0
  joint_names:
  - joint_1
  - joint_2
  - joint_3
  - joint_4
  - joint_5
  - joint_6
  points:
  - accelerations:
    - -0.04120172034077206
    - 0.0
    - 0.0
    - 0.0
    - 0.0
    - 0.0
    effort: []
    positions:
    - -1.7270642279741302
    - -0.81112463242275
    - -1.4408484466689162
    - 2.296337814163942
    - -1.4146513304999702
    - 0.25586097133194985
    time_from_start:
      nsecs: 0
      secs: 0
    velocities:
    - 0.0
    - 0.0
    - 0.0
    - 0.0
    - 0.0
    - 0.0
  - accelerations:
    - 1.1677478594063004e-17
    - 3.503243578218901e-18
    - 1.7516217891094505e-18
    - -5.838739297031502e-18
    - -9.341982875250403e-18
    - 1.8683965750500806e-17
    effort: []
    positions:
    - -1.7384297062170682
    - -0.8142987045590968
    - -1.4424376739529097
    - 2.301744437484762
    - -1.4029621983139398
    - 0.34321008489769456
    time_from_start:
      nsecs: 742764571
      secs: 0
    velocities:
    - -0.015301589069515953
    - -0.004273321937645477
    - -0.0021396110500533413
    - 0.0072790538629780525
    - 0.01573733137019792
    - 0.11759999999999998
  - accelerations:
    - 0.04120172034077201
    - 0.011506531419780483
    - 0.005761209226167777
    - -0.01959989516417756
    - -0.042375018900273266
    - -0.31665484480482564
    effort: []
    positions:
    - -1.7497951844600061
    - -0.8174727766954436
    - -1.4440269012369031
    - 2.307151060805582
    - -1.3912730661279094
    - 0.4305591984634393
    time_from_start:
      nsecs: 485529142
      secs: 1
    velocities:
    - 0.0
    - 0.0
    - 0.0
    - 0.0
    - 0.0
    - 0.0
multi_dof_joint_trajectory:
  header:
    frame_id: ''
    seq: 0
    stamp:
      nsecs: 0
      secs: 0
  joint_names: []
  points: []
---
joint_trajectory:
  header:
    frame_id: base
    seq: 0
    stamp:
      nsecs: 0
      secs: 0
  joint_names:
  - joint_1
  - joint_2
  - joint_3
  - joint_4
  - joint_5
  - joint_6
  points:
  - accelerations:
    - -0.02889728074891326
    - 0.0
    - 0.0
    - 0.0
    - 0.0
    - 0.0
    effort: []
    positions:
    - -1.7497769973308708
    - -0.8174961121727101
    - -1.44404597103172
    - 2.307151579770209
    - -1.3912711729740557
    - 0.4304526525229327
    time_from_start:
      nsecs: 0
      secs: 0
    velocities:
    - 0.0
    - 0.0
    - 0.0
    - 0.0
    - 0.0
    - 0.0
  - accelerations:
    - 3.342527469222826e-16
    - -1.5871749932473166e-16
    - 5.255546335256015e-19
    - -4.204437068204812e-18
    - -6.306655602307219e-18
    - 0.0
    effort: []
    positions:
    - -1.7596155626183982
    - -0.8231241107751945
    - -1.444987011196045
    - 2.312537256510983
    - -1.3821241422122297
    - 0.5274946476654485
    time_from_start:
      nsecs: 825187034
      secs: 0
    velocities:
    - -0.011922830689064304
    - -0.006820270282779919
    - -0.001140396208487905
    - 0.006526613388202535
    - 0.011084797009902541
    - 0.1176
  - accelerations:
    - 0.028897280748912575
    - 0.016530241037955067
    - 0.002763970256819695
    - -0.015818506891277815
    - -0.026866144424382708
    - -0.2850262915491301
    effort: []
    positions:
    - -1.7694541279059255
    - -0.8287521093776791
    - -1.44592805136037
    - 2.317922933251757
    - -1.3729771114504037
    - 0.6245366428079644
    time_from_start:
      nsecs: 650374067
      secs: 1
    velocities:
    - 0.0
    - 0.0
    - 0.0
    - 0.0
    - 0.0
    - 0.0
multi_dof_joint_trajectory:
  header:
    frame_id: ''
    seq: 0
    stamp:
      nsecs: 0
      secs: 0
  joint_names: []
  points: []
---
joint_trajectory:
  header:
    frame_id: base
    seq: 0
    stamp:
      nsecs: 0
      secs: 0
  joint_names:
  - joint_1
  - joint_2
  - joint_3
  - joint_4
  - joint_5
  - joint_6
  points:
  - accelerations:
    - -0.016742294660675443
    - 0.0
    - 0.0
    - 0.0
    - 0.0
    - 0.0
    effort: []
    positions:
    - -1.7694316588078738
    - -0.8287694728040973
    - -1.4459434733084013
    - 2.3179264632245604
    - -1.3729928331484058
    - 0.6243759870402054
    time_from_start:
      nsecs: 0
      secs: 0
    velocities:
    - 0.0
    - 0.0
    - 0.0
    - 0.0
    - 0.0
    - 0.0
  - accelerations:
    - 0.0
    - 0.0
    - 0.0
    - 0.0
    - 1.2242062597781778e-16
    - 0.0
    effort: []
    positions:
    - -1.7846015866840934
    - -0.8426192286207199
    - -1.447019541354867
    - 2.332151284044823
    - -1.3570257744010332
    - 0.7826853447878495
    time_from_start:
      nsecs: 346168008
      secs: 1
    velocities:
    - -0.011268970726842433
    - -0.010288281799684443
    - -0.0007993564250704799
    - 0.010566898585549708
    - 0.011861118858711134
    - 0.1176
  - accelerations:
    - 0.016742294660675443
    - 0.015285286439877505
    - 0.001187602766200817
    - -0.01569922702410987
    - -0.01762204834420405
    - -0.17471816191744746
    effort: []
    positions:
    - -1.799771514560313
    - -0.8564689844373425
    - -1.4480956094013326
    - 2.3463761048650853
    - -1.3410587156536604
    - 0.9409947025354936
    time_from_start:
      nsecs: 692336016
      secs: 2
    velocities:
    - 0.0
    - 0.0
    - 0.0
    - 0.0
    - 0.0
    - 0.0
multi_dof_joint_trajectory:
  header:
    frame_id: ''
    seq: 0
    stamp:
      nsecs: 0
      secs: 0
  joint_names: []
  points: []
---
joint_trajectory:
  header:
    frame_id: base
    seq: 0
    stamp:
      nsecs: 0
      secs: 0
  joint_names:
  - joint_1
  - joint_2
  - joint_3
  - joint_4
  - joint_5
  - joint_6
  points:
  - accelerations:
    - 0.10754087496421236
    - 0.0
    - 0.0
    - 0.0
    - 0.0
    - 0.0
    effort: []
    positions:
    - -1.7997466878123547
    - -0.85648818606186
    - -1.4481022316880194
    - 2.3463631647122085
    - -1.341070586426062
    - 0.9408214430369631
    time_from_start:
      nsecs: 0
      secs: 0
    velocities:
    - 0.0
    - 0.0
    - 0.0
    - 0.0
    - 0.0
    - 0.0
  - accelerations:
    - -0.10754087496421236
    - 0.07382063888651241
    - -0.15002358090412105
    - -0.004125874961298631
    - 0.9112860080186372
    - 0.6620579743338026
    effort: []
    positions:
    - -1.7994993519365243
    - -0.8566579679459987
    - -1.4477571888027865
    - 2.346372653912454
    - -1.3431664752962265
    - 0.939298759787577
    time_from_start:
      nsecs: 67822184
      secs: 0
    velocities:
    - 0.0
    - 0.0
    - 0.0
    - 0.0
    - 0.0
    - 0.0
multi_dof_joint_trajectory:
  header:
    frame_id: ''
    seq: 0
    stamp:
      nsecs: 0
      secs: 0
  joint_names: []
  points: []
---
joint_trajectory:
  header:
    frame_id: base
    seq: 0
    stamp:
      nsecs: 0
      secs: 0
  joint_names:
  - joint_1
  - joint_2
  - joint_3
  - joint_4
  - joint_5
  - joint_6
  points:
  - accelerations:
    - 0.208472188465777
    - 0.0
    - 0.0
    - 0.0
    - 0.0
    - 0.0
    effort: []
    positions:
    - -1.7996012792168363
    - -0.8566284014932526
    - -1.4479092856670432
    - 2.346388997374782
    - -1.34263479409232
    - 0.9397250196161776
    time_from_start:
      nsecs: 0
      secs: 0
    velocities:
    - 0.0
    - 0.0
    - 0.0
    - 0.0
    - 0.0
    - 0.0
  - accelerations:
    - -0.208472188465777
    - 0.4251894470520585
    - -0.7771120638375933
    - -0.9710736162797353
    - -0.10867076693245173
    - -0.8519452260676836
    effort: []
    positions:
    - -1.7994917925834237
    - -0.8568517049538383
    - -1.4475011574448566
    - 2.3468989914503693
    - -1.3425777217484771
    - 0.940172449152657
    time_from_start:
      nsecs: 32409437
      secs: 0
    velocities:
    - 0.0
    - 0.0
    - 0.0
    - 0.0
    - 0.0
    - 0.0
multi_dof_joint_trajectory:
  header:
    frame_id: ''
    seq: 0
    stamp:
      nsecs: 0
      secs: 0
  joint_names: []
  points: []
---
joint_trajectory:
  header:
    frame_id: base
    seq: 0
    stamp:
      nsecs: 0
      secs: 0
  joint_names:
  - joint_1
  - joint_2
  - joint_3
  - joint_4
  - joint_5
  - joint_6
  points:
  - accelerations:
    - -0.2576563794053095
    - 0.0
    - 0.0
    - 0.0
    - 0.0
    - 0.0
    effort: []
    positions:
    - -1.7994974159343233
    - -0.8568256751510003
    - -1.447529785211707
    - 2.346810842091451
    - -1.3427062999675887
    - 0.9400127741719606
    time_from_start:
      nsecs: 0
      secs: 0
    velocities:
    - 0.0
    - 0.0
    - 0.0
    - 0.0
    - 0.0
    - 0.0
  - accelerations:
    - 0.2576563794053095
    - 0.1527566618110541
    - -0.13186095618113933
    - -0.8598079027847059
    - -0.9408585424465357
    - 0.1422767900839373
    effort: []
    positions:
    - -1.7995914633284054
    - -0.8568814330018447
    - -1.4474816545217601
    - 2.347124681371715
    - -1.3423628763181485
    - 0.9399608415888178
    time_from_start:
      nsecs: 27018917
      secs: 0
    velocities:
    - 0.0
    - 0.0
    - 0.0
    - 0.0
    - 0.0
    - 0.0
multi_dof_joint_trajectory:
  header:
    frame_id: ''
    seq: 0
    stamp:
      nsecs: 0
      secs: 0
  joint_names: []
  points: []
---
joint_trajectory:
  header:
    frame_id: base
    seq: 0
    stamp:
      nsecs: 0
      secs: 0
  joint_names:
  - joint_1
  - joint_2
  - joint_3
  - joint_4
  - joint_5
  - joint_6
  points:
  - accelerations:
    - -0.13774888499418372
    - 0.0
    - 0.0
    - 0.0
    - 0.0
    - 0.0
    effort: []
    positions:
    - -1.799492355928252
    - -0.8568620272998798
    - -1.4474862425278843
    - 2.3469344127660303
    - -1.342550505043819
    - 0.9402149080986977
    time_from_start:
      nsecs: 0
      secs: 0
    velocities:
    - 0.0
    - 0.0
    - 0.0
    - 0.0
    - 0.0
    - 0.0
  - accelerations:
    - 0.13774888499418372
    - -0.45721970089969444
    - 0.9794672364459495
    - -0.4239604261424954
    - -0.14212806040777706
    - 0.03737884120476819
    effort: []
    positions:
    - -1.8007590709187684
    - -0.8526575137815781
    - -1.4564932543173306
    - 2.350833079729491
    - -1.3412435199114228
    - 0.9398711787212569
    time_from_start:
      nsecs: 135615836
      secs: 0
    velocities:
    - 0.0
    - 0.0
    - 0.0
    - 0.0
    - 0.0
    - 0.0
multi_dof_joint_trajectory:
  header:
    frame_id: ''
    seq: 0
    stamp:
      nsecs: 0
      secs: 0
  joint_names: []
  points: []
---
joint_trajectory:
  header:
    frame_id: base
    seq: 0
    stamp:
      nsecs: 0
      secs: 0
  joint_names:
  - joint_1
  - joint_2
  - joint_3
  - joint_4
  - joint_5
  - joint_6
  points:
  - accelerations:
    - -0.2051469830816325
    - 0.0
    - 0.0
    - 0.0
    - 0.0
    - 0.0
    effort: []
    positions:
    - -1.80073312268012
    - -0.8526767364887659
    - -1.4564879933284611
    - 2.3507965289788633
    - -1.3412717882464174
    - 0.9398649687314612
    time_from_start:
      nsecs: 0
      secs: 0
    velocities:
    - 0.0
    - 0.0
    - 0.0
    - 0.0
    - 0.0
    - 0.0
  - accelerations:
    - 0.2051469830816325
    - 0.04413115431649309
    - -0.09095821366683575
    - 0.1389323604069512
    - -0.8996235375300796
    - -0.1468955429830813
    effort: []
    positions:
    - -1.801014735428226
    - -0.8527373169343443
    - -1.456363131670109
    - 2.350605811459028
    - -1.3400368421952542
    - 0.9400666176025417
    time_from_start:
      nsecs: 52397261
      secs: 0
    velocities:
    - 0.0
    - 0.0
    - 0.0
    - 0.0
    - 0.0
    - 0.0
multi_dof_joint_trajectory:
  header:
    frame_id: ''
    seq: 0
    stamp:
      nsecs: 0
      secs: 0
  joint_names: []
  points: []
---
joint_trajectory:
  header:
    frame_id: base
    seq: 0
    stamp:
      nsecs: 0
      secs: 0
  joint_names:
  - joint_1
  - joint_2
  - joint_3
  - joint_4
  - joint_5
  - joint_6
  points:
  - accelerations:
    - 0.058996350918024416
    - 0.0
    - 0.0
    - 0.0
    - 0.0
    - 0.0
    effort: []
    positions:
    - -1.801029266193337
    - -0.8526819296528915
    - -1.456438325374131
    - 2.35064712564171
    - -1.3400774936555715
    - 0.9400127741719606
    time_from_start:
      nsecs: 0
      secs: 0
    velocities:
    - 0.0
    - 0.0
    - 0.0
    - 0.0
    - 0.0
    - 0.0
  - accelerations:
    - -0.058996350918024416
    - 0.14720682088998388
    - -0.01018856161006809
    - -0.8410115920520286
    - 0.41693613942143287
    - 0.13814979863373694
    effort: []
    positions:
    - -1.8009430312758548
    - -0.8528971017415838
    - -1.4564234327620282
    - 2.351876431592224
    - -1.3406869288667136
    - 0.9398108407252308
    time_from_start:
      nsecs: 54068460
      secs: 0
    velocities:
    - 0.0
    - 0.0
    - 0.0
    - 0.0
    - 0.0
    - 0.0
multi_dof_joint_trajectory:
  header:
    frame_id: ''
    seq: 0
    stamp:
      nsecs: 0
      secs: 0
  joint_names: []
  points: []
---
joint_trajectory:
  header:
    frame_id: base
    seq: 0
    stamp:
      nsecs: 0
      secs: 0
  joint_names:
  - joint_1
  - joint_2
  - joint_3
  - joint_4
  - joint_5
  - joint_6
  points:
  - accelerations:
    - 0.20704763368502355
    - 0.0
    - 0.0
    - 0.0
    - 0.0
    - 0.0
    effort: []
    positions:
    - -1.801070811506342
    - -0.8528272716693825
    - -1.456270279909347
    - 2.3513350201512773
    - -1.340395475089727
    - 0.9399816151872067
    time_from_start:
      nsecs: 0
      secs: 0
    velocities:
    - 0.0
    - 0.0
    - 0.0
    - 0.0
    - 0.0
    - 0.0
  - accelerations:
    - -0.20704763368502355
    - -0.09290701835541848
    - 0.1617918360490006
    - 0.15642909045765266
    - 0.8772233586185783
    - 0.2412461579940923
    effort: []
    positions:
    - -1.8006441902792687
    - -0.8526358369474827
    - -1.4566036516576601
    - 2.3510126983293214
    - -1.3422029920316525
    - 0.9394845279705194
    time_from_start:
      nsecs: 64194984
      secs: 0
    velocities:
    - 0.0
    - 0.0
    - 0.0
    - 0.0
    - 0.0
    - 0.0
multi_dof_joint_trajectory:
  header:
    frame_id: ''
    seq: 0
    stamp:
      nsecs: 0
      secs: 0
  joint_names: []
  points: []
---
joint_trajectory:
  header:
    frame_id: base
    seq: 0
    stamp:
      nsecs: 0
      secs: 0
  joint_names:
  - joint_1
  - joint_2
  - joint_3
  - joint_4
  - joint_5
  - joint_6
  points:
  - accelerations:
    - 0.016753901345388303
    - 0.0
    - 0.0
    - 0.0
    - 0.0
    - 0.0
    effort: []
    positions:
    - -1.8007901143274476
    - -0.8528740101465134
    - -1.4565254107417767
    - 2.3516077278469014
    - -1.3413756515289306
    - 0.9396705579718855
    time_from_start:
      nsecs: 0
      secs: 0
    velocities:
    - 0.0
    - 0.0
    - 0.0
    - 0.0
    - 0.0
    - 0.0
  - accelerations:
    - 1.1780041781930803e-16
    - -6.731452446817601e-17
    - 1.2338299256486589e-16
    - -2.4207338606824836e-16
    - 5.178040343705847e-18
    - -1.0356080687411694e-17
    effort: []
    positions:
    - -1.7857470749352808
    - -0.8385724163619561
    - -1.4558643952568597
    - 2.3366036540961863
    - -1.3563446670923713
    - 0.7820792939155146
    time_from_start:
      nsecs: 340061769
      secs: 1
    velocities:
    - 0.011225631338841389
    - 0.010672339226001278
    - 0.0004932723999119483
    - -0.011196553842305383
    - -0.011170392221937813
    - -0.11760000000000001
  - accelerations:
    - -0.01675390134538853
    - -0.015928130286826082
    - -0.0007361935266780379
    - 0.01671050409728471
    - 0.016671458702558446
    - 0.1755142974810208
    effort: []
    positions:
    - -1.7707040355431138
    - -0.8242708225773989
    - -1.4552033797719426
    - 2.3215995803454708
    - -1.371313682655812
    - 0.6244880298591435
    time_from_start:
      nsecs: 680123538
      secs: 2
    velocities:
    - 0.0
    - 0.0
    - 0.0
    - 0.0
    - 0.0
    - 0.0
multi_dof_joint_trajectory:
  header:
    frame_id: ''
    seq: 0
    stamp:
      nsecs: 0
      secs: 0
  joint_names: []
  points: []
---
joint_trajectory:
  header:
    frame_id: base
    seq: 0
    stamp:
      nsecs: 0
      secs: 0
  joint_names:
  - joint_1
  - joint_2
  - joint_3
  - joint_4
  - joint_5
  - joint_6
  points:
  - accelerations:
    - 0.028482708591942813
    - 0.0
    - 0.0
    - 0.0
    - 0.0
    - 0.0
    effort: []
    positions:
    - -1.7706985245384244
    - -0.824251752909914
    - -1.4552003549414076
    - 2.3216002939483245
    - -1.3713181042969094
    - 0.6246092799516962
    time_from_start:
      nsecs: 0
      secs: 0
    velocities:
    - 0.0
    - 0.0
    - 0.0
    - 0.0
    - 0.0
    - 0.0
  - accelerations:
    - 0.0
    - 0.0
    - 2.924227147492853e-16
    - -5.853431702896332e-16
    - 0.0
    - 0.0
    effort: []
    positions:
    - -1.7598870394773773
    - -0.8183891501762819
    - -1.453862801363654
    - 2.3151917199241954
    - -1.3821830672649522
    - 0.5221445611472805
    time_from_start:
      nsecs: 871298629
      secs: 0
    velocities:
    - 0.012408472477302455
    - 0.006728580232491
    - 0.0015351264569815302
    - -0.007355198101662365
    - -0.012469849719499496
    - -0.1176
  - accelerations:
    - -0.028482708591942813
    - -0.015444946213170907
    - -0.0035237664914816095
    - 0.016883300063636104
    - 0.028623595401892483
    - 0.26994189144066627
    effort: []
    positions:
    - -1.7490755544163303
    - -0.8125265474426497
    - -1.4525252477859003
    - 2.308783145900066
    - -1.393048030232995
    - 0.4196798423428647
    time_from_start:
      nsecs: 742597259
      secs: 1
    velocities:
    - 0.0
    - 0.0
    - 0.0
    - 0.0
    - 0.0
    - 0.0
multi_dof_joint_trajectory:
  header:
    frame_id: ''
    seq: 0
    stamp:
      nsecs: 0
      secs: 0
  joint_names: []
  points: []
---
joint_trajectory:
  header:
    frame_id: base
    seq: 0
    stamp:
      nsecs: 0
      secs: 0
  joint_names:
  - joint_1
  - joint_2
  - joint_3
  - joint_4
  - joint_5
  - joint_6
  points:
  - accelerations:
    - 0.03916288412497224
    - 0.0
    - 0.0
    - 0.0
    - 0.0
    - 0.0
    effort: []
    positions:
    - -1.7490813796541422
    - -0.8125370399068735
    - -1.4525252096264232
    - 2.3087806354090104
    - -1.3930367156187236
    - 0.41981478870666566
    time_from_start:
      nsecs: 0
      secs: 0
    velocities:
    - 0.0
    - 0.0
    - 0.0
    - 0.0
    - 0.0
    - 0.0
  - accelerations:
    - -3.930960441886069e-16
    - -1.93139674890356e-16
    - -1.4201446683114412e-18
    - 7.6460588941888e-16
    - 3.930960441886069e-16
    - 0.0
    effort: []
    positions:
    - -1.7376683737219354
    - -0.8097377963548602
    - -1.4511884988087658
    - 2.306545438505341
    - -1.4043334125356615
    - 0.3300336710998968
    time_from_start:
      nsecs: 763444878
      secs: 0
    velocities:
    - 0.014949351638794045
    - 0.0036665954990511536
    - 0.001750893688414714
    - -0.002927777720731405
    - -0.01479700401202987
    - -0.1176
  - accelerations:
    - -0.03916288412497143
    - -0.009605396818003029
    - -0.004586824117280677
    - 0.007669912541432216
    - 0.03876377835785596
    - 0.3080772520692552
    effort: []
    positions:
    - -1.7262553677897288
    - -0.806938552802847
    - -1.4498517879911084
    - 2.3043102416016725
    - -1.4156301094525992
    - 0.24025255349312785
    time_from_start:
      nsecs: 526889755
      secs: 1
    velocities:
    - 0.0
    - 0.0
    - 0.0
    - 0.0
    - 0.0
    - 0.0
multi_dof_joint_trajectory:
  header:
    frame_id: ''
    seq: 0
    stamp:
      nsecs: 0
      secs: 0
  joint_names: []
  points: []
---
joint_trajectory:
  header:
    frame_id: base
    seq: 0
    stamp:
      nsecs: 0
      secs: 0
  joint_names:
  - joint_1
  - joint_2
  - joint_3
  - joint_4
  - joint_5
  - joint_6
  points:
  - accelerations:
    - -0.16376681365529208
    - 0.0
    - 0.0
    - 0.0
    - 0.0
    - 0.0
    effort: []
    positions:
    - -1.7262487680483478
    - -0.8069133092119805
    - -1.4498440721989858
    - 2.3043019974038237
    - -1.4155926247872588
    - 0.24044850908960475
    time_from_start:
      nsecs: 0
      secs: 0
    velocities:
    - 0.0
    - 0.0
    - 0.0
    - 0.0
    - 0.0
    - 0.0
  - accelerations:
    - 0.16376681365529208
    - 0.46172080387561376
    - -0.6347846716320996
    - -0.6625013312895586
    - -0.8703624031035758
    - -0.22681277163344446
    effort: []
    positions:
    - -1.7264221803372084
    - -0.8074022242713108
    - -1.4491719002223542
    - 2.305003518485341
    - -1.4146710001119562
    - 0.24068868059318274
    time_from_start:
      nsecs: 46019509
      secs: 0
    velocities:
    - 0.0
    - 0.0
    - 0.0
    - 0.0
    - 0.0
    - 0.0
multi_dof_joint_trajectory:
  header:
    frame_id: ''
    seq: 0
    stamp:
      nsecs: 0
      secs: 0
  joint_names: []
  points: []
---
joint_trajectory:
  header:
    frame_id: base
    seq: 0
    stamp:
      nsecs: 0
      secs: 0
  joint_names:
  - joint_1
  - joint_2
  - joint_3
  - joint_4
  - joint_5
  - joint_6
  points:
  - accelerations:
    - 0.14019590864173204
    - 0.0
    - 0.0
    - 0.0
    - 0.0
    - 0.0
    effort: []
    positions:
    - -1.7263997692821553
    - -0.8074066598039176
    - -1.4491162302730671
    - 2.3049707171535427
    - -1.414709653727843
    - 0.24065844940728703
    time_from_start:
      nsecs: 0
      secs: 0
    velocities:
    - 0.0
    - 0.0
    - 0.0
    - 0.0
    - 0.0
    - 0.0
  - accelerations:
    - -0.14019590864173204
    - -0.05592853440284372
    - 0.21533708919445668
    - -0.20071336612263532
    - 0.9840258389910246
    - -0.5531899936811967
    effort: []
    positions:
    - -1.7261268152754392
    - -0.8072977699104612
    - -1.4495354801774307
    - 2.3053614954438326
    - -1.416625499903862
    - 0.24173548101764888
    time_from_start:
      nsecs: 62401074
      secs: 0
    velocities:
    - 0.0
    - 0.0
    - 0.0
    - 0.0
    - 0.0
    - 0.0
multi_dof_joint_trajectory:
  header:
    frame_id: ''
    seq: 0
    stamp:
      nsecs: 0
      secs: 0
  joint_names: []
  points: []
---
joint_trajectory:
  header:
    frame_id: base
    seq: 0
    stamp:
      nsecs: 0
      secs: 0
  joint_names:
  - joint_1
  - joint_2
  - joint_3
  - joint_4
  - joint_5
  - joint_6
  points:
  - accelerations:
    - 0.13396048570830188
    - 0.0
    - 0.0
    - 0.0
    - 0.0
    - 0.0
    effort: []
    positions:
    - -1.7263057596956755
    - -0.8073962734756663
    - -1.4492405998959739
    - 2.305184835305185
    - -1.4157092712430042
    - 0.2412650009903094
    time_from_start:
      nsecs: 0
      secs: 0
    velocities:
    - 0.0
    - 0.0
    - 0.0
    - 0.0
    - 0.0
    - 0.0
  - accelerations:
    - -0.13396048570830188
    - -0.07728880412892636
    - 0.22441678390831327
    - -0.22962663584793488
    - 0.8365265938101178
    - 0.877379038553868
    effort: []
    positions:
    - -1.726147990923153
    - -0.8073052484268045
    - -1.44950490141999
    - 2.3054552726082798
    - -1.4166944705216573
    - 0.240231688717532
    time_from_start:
      nsecs: 48533003
      secs: 0
    velocities:
    - 0.0
    - 0.0
    - 0.0
    - 0.0
    - 0.0
    - 0.0
multi_dof_joint_trajectory:
  header:
    frame_id: ''
    seq: 0
    stamp:
      nsecs: 0
      secs: 0
  joint_names: []
  points: []
---
joint_trajectory:
  header:
    frame_id: base
    seq: 0
    stamp:
      nsecs: 0
      secs: 0
  joint_names:
  - joint_1
  - joint_2
  - joint_3
  - joint_4
  - joint_5
  - joint_6
  points:
  - accelerations:
    - -0.06886420622791893
    - 0.0
    - 0.0
    - 0.0
    - 0.0
    - 0.0
    effort: []
    positions:
    - -1.7261089520911186
    - -0.8072976033572788
    - -1.4495392734122263
    - 2.305412002946169
    - -1.4167154135028361
    - 0.2408373139639995
    time_from_start:
      nsecs: 0
      secs: 0
    velocities:
    - 0.0
    - 0.0
    - 0.0
    - 0.0
    - 0.0
    - 0.0
  - accelerations:
    - 0.06886420622791893
    - -0.40031946491365683
    - 0.8621256619814129
    - -0.35248288219583895
    - -0.12474992122238457
    - -0.9233577672029356
    effort: []
    positions:
    - -1.7267942908568137
    - -0.8033136113388474
    - -1.4581191753586873
    - 2.308919923775362
    - -1.4154738983280566
    - 0.2500265997647452
    time_from_start:
      nsecs: 141081762
      secs: 0
    velocities:
    - 0.0
    - 0.0
    - 0.0
    - 0.0
    - 0.0
    - 0.0
multi_dof_joint_trajectory:
  header:
    frame_id: ''
    seq: 0
    stamp:
      nsecs: 0
      secs: 0
  joint_names: []
  points: []
---
joint_trajectory:
  header:
    frame_id: base
    seq: 0
    stamp:
      nsecs: 0
      secs: 0
  joint_names:
  - joint_1
  - joint_2
  - joint_3
  - joint_4
  - joint_5
  - joint_6
  points:
  - accelerations:
    - 0.03727882293383918
    - 0.0
    - 0.0
    - 0.0
    - 0.0
    - 0.0
    effort: []
    positions:
    - -1.726830402430421
    - -0.8031901434290224
    - -1.4585969505956948
    - 2.309014460952719
    - -1.4154562709394467
    - 0.25028542720803043
    time_from_start:
      nsecs: 0
      secs: 0
    velocities:
    - 0.0
    - 0.0
    - 0.0
    - 0.0
    - 0.0
    - 0.0
  - accelerations:
    - -0.03727882293383918
    - 0.3755694159516852
    - -0.7680432126690644
    - -0.9243593141193286
    - 0.29049447872461487
    - 0.7073243398774824
    effort: []
    positions:
    - -1.726788825812721
    - -0.8036090114296174
    - -1.4577403613442883
    - 2.3100453876503986
    - -1.4157802558975374
    - 0.24949655697676867
    time_from_start:
      nsecs: 47228971
      secs: 0
    velocities:
    - 0.0
    - 0.0
    - 0.0
    - 0.0
    - 0.0
    - 0.0
multi_dof_joint_trajectory:
  header:
    frame_id: ''
    seq: 0
    stamp:
      nsecs: 0
      secs: 0
  joint_names: []
  points: []
---
joint_trajectory:
  header:
    frame_id: base
    seq: 0
    stamp:
      nsecs: 0
      secs: 0
  joint_names:
  - joint_1
  - joint_2
  - joint_3
  - joint_4
  - joint_5
  - joint_6
  points:
  - accelerations:
    - -0.17753318917464367
    - 0.0
    - 0.0
    - 0.0
    - 0.0
    - 0.0
    effort: []
    positions:
    - -1.726830402430421
    - -0.8034394153070539
    - -1.45794993560886
    - 2.309683180702438
    - -1.4156444232704608
    - 0.24968664872643972
    time_from_start:
      nsecs: 0
      secs: 0
    velocities:
    - 0.0
    - 0.0
    - 0.0
    - 0.0
    - 0.0
    - 0.0
  - accelerations:
    - 0.17753318917464367
    - 0.020331820802774098
    - 0.06582597029860277
    - -0.32390959515815615
    - -0.998040226976177
    - 0.36252360061868866
    effort: []
    positions:
    - -1.727080422198064
    - -0.8034680485847892
    - -1.4580426382402691
    - 2.3101393421790344
    - -1.4142388844706062
    - 0.2491761071943851
    time_from_start:
      nsecs: 53071626
      secs: 0
    velocities:
    - 0.0
    - 0.0
    - 0.0
    - 0.0
    - 0.0
    - 0.0
multi_dof_joint_trajectory:
  header:
    frame_id: ''
    seq: 0
    stamp:
      nsecs: 0
      secs: 0
  joint_names: []
  points: []
---
joint_trajectory:
  header:
    frame_id: base
    seq: 0
    stamp:
      nsecs: 0
      secs: 0
  joint_names:
  - joint_1
  - joint_2
  - joint_3
  - joint_4
  - joint_5
  - joint_6
  points:
  - accelerations:
    - -0.0498271221322035
    - 0.0
    - 0.0
    - 0.0
    - 0.0
    - 0.0
    effort: []
    positions:
    - -1.726928939390754
    - -0.8035848239025721
    - -1.45781304912883
    - 2.3101050254191065
    - -1.414988886168138
    - 0.24932893625777164
    time_from_start:
      nsecs: 0
      secs: 0
    velocities:
    - 0.0
    - 0.0
    - 0.0
    - 0.0
    - 0.0
    - 0.0
  - accelerations:
    - 0.0498271221322035
    - 0.20443757093894982
    - -0.11979657105237441
    - -0.5659508868289399
    - -0.23944754134259089
    - -0.9119011279287101
    effort: []
    positions:
    - -1.7270180132523447
    - -0.803950288394971
    - -1.4575988938107556
    - 2.3111167521414875
    - -1.4145608358163801
    - 0.25095910375245345
    time_from_start:
      nsecs: 59793949
      secs: 0
    velocities:
    - 0.0
    - 0.0
    - 0.0
    - 0.0
    - 0.0
    - 0.0
multi_dof_joint_trajectory:
  header:
    frame_id: ''
    seq: 0
    stamp:
      nsecs: 0
      secs: 0
  joint_names: []
  points: []
---
joint_trajectory:
  header:
    frame_id: base
    seq: 0
    stamp:
      nsecs: 0
      secs: 0
  joint_names:
  - joint_1
  - joint_2
  - joint_3
  - joint_4
  - joint_5
  - joint_6
  points:
  - accelerations:
    - -0.022805161944780616
    - 0.0
    - 0.0
    - 0.0
    - 0.0
    - 0.0
    effort: []
    positions:
    - -1.7270485153236987
    - -0.8039690514688433
    - -1.4576451368221004
    - 2.3111433919281286
    - -1.4145474672174572
    - 0.2509930457544213
    time_from_start:
      nsecs: 0
      secs: 0
    velocities:
    - 0.0
    - 0.0
    - 0.0
    - 0.0
    - 0.0
    - 0.0
  - accelerations:
    - 0.022805161944780616
    - 0.004319780781129357
    - 0.003023924720069893
    - 0.0003559572802288698
    - -0.021588567929155016
    - -0.170813752176506
    effort: []
    positions:
    - -1.7486673427291202
    - -0.8080641153566868
    - -1.4605117556502618
    - 2.3108059517019375
    - -1.3940819460726956
    - 0.4129209915290609
    time_from_start:
      nsecs: 376938314
      secs: 1
    velocities:
    - 0.0
    - 0.0
    - 0.0
    - 0.0
    - 0.0
    - 0.0
multi_dof_joint_trajectory:
  header:
    frame_id: ''
    seq: 0
    stamp:
      nsecs: 0
      secs: 0
  joint_names: []
  points: []
---
joint_trajectory:
  header:
    frame_id: base
    seq: 0
    stamp:
      nsecs: 0
      secs: 0
  joint_names:
  - joint_1
  - joint_2
  - joint_3
  - joint_4
  - joint_5
  - joint_6
  points:
  - accelerations:
    - -0.02837639352795769
    - 0.0
    - 0.0
    - 0.0
    - 0.0
    - 0.0
    effort: []
    positions:
    - -1.748634501223227
    - -0.8080765113970998
    - -1.4605316039695828
    - 2.3107995778313994
    - -1.3941206221823859
    - 0.41269176489708526
    time_from_start:
      nsecs: 0
      secs: 0
    velocities:
    - 0.0
    - 0.0
    - 0.0
    - 0.0
    - 0.0
    - 0.0
  - accelerations:
    - -2.7756516893204905e-16
    - 0.0
    - 0.0
    - -5.551303378640981e-16
    - 0.0
    - 0.0
    effort: []
    positions:
    - -1.759967108954168
    - -0.8141760660126058
    - -1.462078670930884
    - 2.3184020827301284
    - -1.3826455980899819
    - 0.5177932005817208
    time_from_start:
      nsecs: 893719691
      secs: 0
    velocities:
    - -0.012680270830529694
    - -0.0068249079388015554
    - -0.0017310427156763378
    - 0.008506587662352887
    - 0.012839623212340005
    - 0.1176
  - accelerations:
    - 0.028376393527958246
    - 0.01527303920017514
    - 0.0038737933889764473
    - -0.019036366203300334
    - -0.02873299836363543
    - -0.2631697637603579
    effort: []
    positions:
    - -1.7712997166851092
    - -0.8202756206281119
    - -1.463625737892185
    - 2.326004587628857
    - -1.371170573997578
    - 0.6228946362663564
    time_from_start:
      nsecs: 787439382
      secs: 1
    velocities:
    - 0.0
    - 0.0
    - 0.0
    - 0.0
    - 0.0
    - 0.0
multi_dof_joint_trajectory:
  header:
    frame_id: ''
    seq: 0
    stamp:
      nsecs: 0
      secs: 0
  joint_names: []
  points: []
---
joint_trajectory:
  header:
    frame_id: base
    seq: 0
    stamp:
      nsecs: 0
      secs: 0
  joint_names:
  - joint_1
  - joint_2
  - joint_3
  - joint_4
  - joint_5
  - joint_6
  points:
  - accelerations:
    - -0.025133632796133946
    - 0.0
    - 0.0
    - 0.0
    - 0.0
    - 0.0
    effort: []
    positions:
    - -1.7712697725922464
    - -0.8202949613203289
    - -1.4636421761227953
    - 2.3260011676496806
    - -1.371175358862481
    - 0.6227740956445227
    time_from_start:
      nsecs: 0
      secs: 0
    velocities:
    - 0.0
    - 0.0
    - 0.0
    - 0.0
    - 0.0
    - 0.0
  - accelerations:
    - 2.737785028404634e-16
    - 0.0
    - 0.0
    - -5.494850233065639e-16
    - -2.737785028404634e-16
    - 0.0
    effort: []
    positions:
    - -1.7814431178130794
    - -0.8297711750537181
    - -1.464182992278328
    - 2.33593648825819
    - -1.3604538160284323
    - 0.7285840623492952
    time_from_start:
      nsecs: 899744615
      secs: 0
    velocities:
    - -0.011306925379799668
    - -0.010532114976994045
    - -0.00060107740198142
    - 0.011042378520170131
    - 0.011916206729391742
    - 0.1176
  - accelerations:
    - -2.737785028404634e-16
    - 0.0
    - 0.0
    - 5.494850233065639e-16
    - 2.737785028404634e-16
    - 0.0
    effort: []
    positions:
    - -1.7916164630339122
    - -0.8392473887871074
    - -1.4647238084338607
    - 2.345871808866699
    - -1.3497322731943837
    - 0.8343940290540677
    time_from_start:
      nsecs: 799489230
      secs: 1
    velocities:
    - -0.011306925379799668
    - -0.010532114976994045
    - -0.00060107740198142
    - 0.011042378520170131
    - 0.011916206729391742
    - 0.1176
  - accelerations:
    - 0.025133632796133946
    - 0.02341134318188259
    - 0.0013361066953218636
    - -0.02454558402036553
    - -0.026487975660865158
    - -0.26140751066650164
    effort: []
    positions:
    - -1.8017898082547452
    - -0.8487236025204966
    - -1.4652646245893934
    - 2.3558071294752088
    - -1.339010730360335
    - 0.9402039957588402
    time_from_start:
      nsecs: 699233845
      secs: 2
    velocities:
    - 0.0
    - 0.0
    - 0.0
    - 0.0
    - 0.0
    - 0.0
multi_dof_joint_trajectory:
  header:
    frame_id: ''
    seq: 0
    stamp:
      nsecs: 0
      secs: 0
  joint_names: []
  points: []
---
joint_trajectory:
  header:
    frame_id: base
    seq: 0
    stamp:
      nsecs: 0
      secs: 0
  joint_names:
  - joint_1
  - joint_2
  - joint_3
  - joint_4
  - joint_5
  - joint_6
  points:
  - accelerations:
    - -0.027925895795491668
    - 0.0
    - 0.0
    - 0.0
    - 0.0
    - 0.0
    effort: []
    positions:
    - -1.801777081827431
    - -0.8487458441407816
    - -1.4652659054394166
    - 2.35578782549389
    - -1.339019419754483
    - 0.9400204973391219
    time_from_start:
      nsecs: 0
      secs: 0
    velocities:
    - 0.0
    - 0.0
    - 0.0
    - 0.0
    - 0.0
    - 0.0
  - accelerations:
    - 0.027925895795491668
    - 0.26123726383312457
    - -0.8552613335860657
    - -0.18011856037837137
    - -0.07250598660343485
    - -0.25503351249624234
    effort: []
    positions:
    - -1.8017953340204453
    - -0.8489165872029535
    - -1.4647069119141016
    - 2.355905549872494
    - -1.3389720302894548
    - 0.940187185667736
    time_from_start:
      nsecs: 36155050
      secs: 0
    velocities:
    - 0.0
    - 0.0
    - 0.0
    - 0.0
    - 0.0
    - 0.0
multi_dof_joint_trajectory:
  header:
    frame_id: ''
    seq: 0
    stamp:
      nsecs: 0
      secs: 0
  joint_names: []
  points: []
---
joint_trajectory:
  header:
    frame_id: base
    seq: 0
    stamp:
      nsecs: 0
      secs: 0
  joint_names:
  - joint_1
  - joint_2
  - joint_3
  - joint_4
  - joint_5
  - joint_6
  points:
  - accelerations:
    - 0.15582385203088506
    - 0.0
    - 0.0
    - 0.0
    - 0.0
    - 0.0
    effort: []
    positions:
    - -1.8018287471525787
    - -0.8488237416026664
    - -1.4651786869137167
    - 2.35583336554853
    - -1.33900011183658
    - 0.9402304875910746
    time_from_start:
      nsecs: 0
      secs: 0
    velocities:
    - 0.0
    - 0.0
    - 0.0
    - 0.0
    - 0.0
    - 0.0
  - accelerations:
    - -0.15582385203088506
    - -0.06482076122433708
    - -0.09212474780491657
    - 0.4474094399527139
    - 0.8553072668516292
    - -0.34171056551245005
    effort: []
    positions:
    - -1.801503651321612
    - -0.8486885058286853
    - -1.4649864867399314
    - 2.3548999337165735
    - -1.3407845422881761
    - 0.9409433995028103
    time_from_start:
      nsecs: 64595718
      secs: 0
    velocities:
    - 0.0
    - 0.0
    - 0.0
    - 0.0
    - 0.0
    - 0.0
multi_dof_joint_trajectory:
  header:
    frame_id: ''
    seq: 0
    stamp:
      nsecs: 0
      secs: 0
  joint_names: []
  points: []
---
joint_trajectory:
  header:
    frame_id: base
    seq: 0
    stamp:
      nsecs: 0
      secs: 0
  joint_names:
  - joint_1
  - joint_2
  - joint_3
  - joint_4
  - joint_5
  - joint_6
  points:
  - accelerations:
    - -0.10495114244119204
    - 0.0
    - 0.0
    - 0.0
    - 0.0
    - 0.0
    effort: []
    positions:
    - -1.801579475274547
    - -0.8487718099614099
    - -1.4648428623002576
    - 2.3551452047228536
    - -1.3404215740684096
    - 0.9407748377178868
    time_from_start:
      nsecs: 0
