joint_trajectory:
  header:
    frame_id: base
    seq: 0
    stamp:
      nsecs: 0
      secs: 0
  joint_names:
  - joint_1
  - joint_2
  - joint_3
  - joint_4
  - joint_5
  - joint_6
  points:
  - accelerations:
    - -0.025473012203937762
    - 0.0
    - 0.0
    - 0.0
    - 0.0
    - 0.0
    effort: []
    positions:
    - -1.6102181639312443
    - -0.7452309118829468
    - -1.351098938428982
    - 2.1415409512021544
    - -1.5304324663236357
    - 0.5938539892417619
    time_from_start:
      nsecs: 0
      secs: 0
    velocities:
    - 0.0
    - 0.0
    - 0.0
    - 0.0
    - 0.0
    - 0.0
  - accelerations:
    - 6.542759635971553e-17
    - -1.916093893391669e-16
    - -1.0281479427955297e-16
    - 0.0
    - -4.1826927672818137e-16
    - 5.795015677574803e-16
    effort: []
    positions:
    - -1.6172376440910314
    - -0.7242956012387407
    - -1.3842414934934992
    - 2.0542368504937656
    - -1.5287988666086518
    - 0.5306980332662737
    time_from_start:
      nsecs: 742381809
      secs: 0
    velocities:
    - -0.00945535043706885
    - 0.02820019348211511
    - -0.04464354416301462
    - -0.1176
    - 0.002200484569720018
    - -0.08507206835020681
  - accelerations:
    - 3.6919857945839426e-16
    - 9.814139453957316e-17
    - 2.523635859589024e-16
    - 0.0
    - 4.1067500215071385e-16
    - -9.346799479959348e-17
    effort: []
    positions:
    - -1.6242571242508186
    - -0.7033602905945346
    - -1.4173840485580167
    - 1.9669327497853764
    - -1.5271652668936682
    - 0.46754207729078556
    time_from_start:
      nsecs: 484763617
      secs: 1
    velocities:
    - -0.009455350437068688
    - 0.028200193482115075
    - -0.04464354416301457
    - -0.1176
    - 0.002200484569720015
    - -0.08507206835020664
  - accelerations:
    - -4.019123776382525e-16
    - 0.0
    - -4.019123776382525e-16
    - 0.0
    - 0.0
    - -2.9909758335869956e-16
    effort: []
    positions:
    - -1.6312766044106055
    - -0.6824249799503286
    - -1.450526603622534
    - 1.8796286490769873
    - -1.5255316671786843
    - 0.4043861213152975
    time_from_start:
      nsecs: 227145426
      secs: 2
    velocities:
    - -0.0094553504370687
    - 0.02820019348211511
    - -0.04464354416301462
    - -0.1176
    - 0.0022004845697201677
    - -0.08507206835020678
  - accelerations:
    - -3.2713798179857806e-17
    - 9.346799479959373e-17
    - 2.523635859589031e-16
    - 0.0
    - -3.95486452995781e-16
    - -9.346799479959373e-17
    effort: []
    positions:
    - -1.6382960845703927
    - -0.6614896693061225
    - -1.4836691586870514
    - 1.7923245483685983
    - -1.5238980674637004
    - 0.34123016533980927
    time_from_start:
      nsecs: 969527235
      secs: 2
    velocities:
    - -0.009455350437068862
    - 0.028200193482115145
    - -0.04464354416301468
    - -0.1176
    - 0.002200484569720021
    - -0.08507206835020692
  - accelerations:
    - 6.542759635971553e-17
    - -3.9256557815829313e-16
    - 2.9909758335869956e-16
    - 0.0
    - 3.8789217841831345e-16
    - 5.795015677574803e-16
    effort: []
    positions:
    - -1.6453155647301798
    - -0.6405543586619165
    - -1.5168117137515686
    - 1.7050204476602095
    - -1.5222644677487167
    - 0.27807420936432115
    time_from_start:
      nsecs: 711909044
      secs: 3
    velocities:
    - -0.00945535043706885
    - 0.028200193482115034
    - -0.04464354416301447
    - -0.1176
    - 0.002200484569720018
    - -0.08507206835020675
  - accelerations:
    - -6.542759635971553e-17
    - 3.9256557815829313e-16
    - -2.9909758335869956e-16
    - 0.0
    - -3.8789217841831345e-16
    - -6.729695625570739e-16
    effort: []
    positions:
    - -1.652335044889967
    - -0.6196190480177105
    - -1.549954268816086
    - 1.6177163469518203
    - -1.5206308680337328
    - 0.21491825338883302
    time_from_start:
      nsecs: 454290852
      secs: 4
    velocities:
    - -0.00945535043706885
    - 0.028200193482115034
    - -0.04464354416301447
    - -0.1176
    - 0.002200484569720018
    - -0.08507206835020678
  - accelerations:
    - 6.542759635971553e-17
    - -1.916093893391669e-16
    - -1.0281479427955297e-16
    - 0.0
    - 3.8789217841831345e-16
    - 4.860335729578867e-16
    effort: []
    positions:
    - -1.6593545250497541
    - -0.5986837373735044
    - -1.5830968238806031
    - 1.5304122462434315
    - -1.5189972683187491
    - 0.15176229741334485
    time_from_start:
      nsecs: 196672661
      secs: 5
    velocities:
    - -0.00945535043706885
    - 0.02820019348211511
    - -0.04464354416301462
    - -0.1176
    - 0.002200484569720018
    - -0.08507206835020685
  - accelerations:
    - 3.3882148114852683e-16
    - 1.916093893391669e-16
    - 1.0281479427955297e-16
    - 0.0
    - 1.518854915493396e-17
    - -4.860335729578867e-16
    effort: []
    positions:
    - -1.6663740052095413
    - -0.5777484267292984
    - -1.6162393789451206
    - 1.4431081455350423
    - -1.5173636686037653
    - 0.08860634143785662
    time_from_start:
      nsecs: 939054470
      secs: 5
    velocities:
    - -0.009455350437068698
    - 0.02820019348211511
    - -0.04464354416301462
    - -0.1176
    - 0.0022004845697201677
    - -0.08507206835020685
  - accelerations:
    - -3.7153527932838506e-16
    - -9.346799479959373e-17
    - -2.523635859589031e-16
    - 0.0
    - -4.1067500215071493e-16
    - 4.860335729578874e-16
    effort: []
    positions:
    - -1.6733934853693282
    - -0.5568131160850923
    - -1.6493819340096378
    - 1.3558040448266535
    - -1.5157300688887814
    - 0.02545038546236844
    time_from_start:
      nsecs: 681436279
      secs: 6
    velocities:
    - -0.009455350437068712
    - 0.028200193482115145
    - -0.04464354416301468
    - -0.1176
    - 0.002200484569720021
    - -0.08507206835020685
  - accelerations:
    - 0.0
    - 0.0
    - 4.019123776382525e-16
    - 0.0
    - 4.030807275732474e-16
    - -2.2432318751902465e-16
    effort: []
    positions:
    - -1.6804129655291153
    - -0.5358778054408863
    - -1.6825244890741553
    - 1.2684999441182645
    - -1.5140964691737977
    - -0.037705570513119624
    time_from_start:
      nsecs: 423818087
      secs: 7
    velocities:
    - -0.00945535043706885
    - 0.02820019348211511
    - -0.04464354416301462
    - -0.1176
    - 0.002200484569720018
    - -0.08507206835020675
  - accelerations:
    - 0.02547301220393763
    - -0.07597221039075593
    - 0.12027111558268473
    - 0.3168181079189813
    - -0.00592817481193586
    - 0.22918683445124813
    effort: []
    positions:
    - -1.6874324456889025
    - -0.5149424947966802
    - -1.7156670441386725
    - 1.1811958434098755
    - -1.5124628694588138
    - -0.10086152648860781
    time_from_start:
      nsecs: 166199896
      secs: 8
    velocities:
    - 0.0
    - 0.0
    - 0.0
    - 0.0
    - 0.0
    - 0.0
multi_dof_joint_trajectory:
  header:
    frame_id: ''
    seq: 0
    stamp:
      nsecs: 0
      secs: 0
  joint_names: []
  points: []
---
joint_trajectory:
  header:
    frame_id: base
    seq: 0
    stamp:
      nsecs: 0
      secs: 0
  joint_names:
  - joint_1
  - joint_2
  - joint_3
  - joint_4
  - joint_5
  - joint_6
  points:
  - accelerations:
    - 0.008210847806418488
    - 0.0
    - 0.0
    - 0.0
    - 0.0
    - 0.0
    effort: []
    positions:
    - -1.6874324456889025
    - -0.5149424947966802
    - -1.7156670441386725
    - 1.1811958434098755
    - -1.5124628694588138
    - -0.10086152648860781
    time_from_start:
      nsecs: 0
      secs: 0
    velocities:
    - 0.0
    - 0.0
    - 0.0
    - 0.0
    - 0.0
    - 0.0
  - accelerations:
    - 0.0
    - 0.0
    - 0.0
    - -2.476478453484499e-16
    - -2.4468881778454376e-16
    - -1.547799033427812e-17
    effort: []
    positions:
    - -1.6837065797239081
    - -0.6046823807390118
    - -1.6726763459505676
    - 1.2276713148231635
    - -1.514070204827783
    - -0.09822359476016301
    time_from_start:
      nsecs: 952652717
      secs: 0
    velocities:
    - 0.003911043235869633
    - -0.0942
    - 0.04512735587742902
    - 0.048785323952217755
    - -0.0016872206841694244
    - 0.00276903816190702
  - accelerations:
    - -0.008210847806418488
    - 0.19776356760030547
    - -0.09474041289478743
    - -0.10241995447268783
    - 0.0035421526733587752
    - -0.005813321292145681
    effort: []
    positions:
    - -1.6799807137589138
    - -0.6944222666813434
    - -1.6296856477624626
    - 1.2741467862364513
    - -1.5156775401967524
    - -0.09558566303171823
    time_from_start:
      nsecs: 905305434
      secs: 1
    velocities:
    - 0.0
    - 0.0
    - 0.0
    - 0.0
    - 0.0
    - 0.0
multi_dof_joint_trajectory:
  header:
    frame_id: ''
    seq: 0
    stamp:
      nsecs: 0
      secs: 0
  joint_names: []
  points: []
---
joint_trajectory:
  header:
    frame_id: base
    seq: 0
    stamp:
      nsecs: 0
      secs: 0
  joint_names:
  - joint_1
  - joint_2
  - joint_3
  - joint_4
  - joint_5
  - joint_6
  points:
  - accelerations:
    - -0.014136539644034064
    - 0.0
    - 0.0
    - 0.0
    - 0.0
    - 0.0
    effort: []
    positions:
    - -1.6799807137589138
    - -0.6944222666813434
    - -1.6296856477624626
    - 1.2741467862364513
    - -1.5156775401967524
    - -0.09558566303171823
    time_from_start:
      nsecs: 0
      secs: 0
    velocities:
    - 0.0
    - 0.0
    - 0.0
    - 0.0
    - 0.0
    - 0.0
  - accelerations:
    - 2.5252098326190314e-17
    - -9.569216207819487e-17
    - 0.0
    - 1.0632462453132763e-16
    - -6.3130245815475784e-18
    - 5.050419665238063e-17
    effort: []
    positions:
    - -1.6829911254962544
    - -0.682910778910101
    - -1.691161887027758
    - 1.3236159119013546
    - -1.5149412550272918
    - -0.09775677994872631
    time_from_start:
      nsecs: 652614005
      secs: 0
    velocities:
    - -0.004612851876539124
    - 0.017639044954774776
    - -0.0942
    - 0.07580150792120033
    - 0.0011282092690132824
    - -0.003326800988908497
  - accelerations:
    - 0.014136539644033963
    - -0.05405659339600431
    - 0.2886851930452849
    - -0.23230119901651186
    - -0.0034575086053139983
    - 0.010195309827030674
    effort: []
    positions:
    - -1.686001537233595
    - -0.6713992911388585
    - -1.7526381262930537
    - 1.3730850375662582
    - -1.5142049698578313
    - -0.09992789686573438
    time_from_start:
      nsecs: 305228010
      secs: 1
    velocities:
    - 0.0
    - 0.0
    - 0.0
    - 0.0
    - 0.0
    - 0.0
multi_dof_joint_trajectory:
  header:
    frame_id: ''
    seq: 0
    stamp:
      nsecs: 0
      secs: 0
  joint_names: []
  points: []
---
joint_trajectory:
  header:
    frame_id: base
    seq: 0
    stamp:
      nsecs: 0
      secs: 0
  joint_names:
  - joint_1
  - joint_2
  - joint_3
  - joint_4
  - joint_5
  - joint_6
  points:
  - accelerations:
    - -0.008840316549065351
    - 0.0
    - 0.0
    - 0.0
    - 0.0
    - 0.0
    effort: []
    positions:
    - -1.686001537233595
    - -0.6713992911388585
    - -1.7526381262930537
    - 1.3730850375662582
    - -1.5142049698578313
    - -0.09992789686573438
    time_from_start:
      nsecs: 0
      secs: 0
    velocities:
    - 0.0
    - 0.0
    - 0.0
    - 0.0
    - 0.0
    - 0.0
  - accelerations:
    - -1.7336989914806986e-18
    - -1.3869591931845588e-17
    - -2.080438789776838e-17
    - 2.0110908301176103e-16
    - 1.7336989914806986e-18
    - -1.7336989914806986e-18
    effort: []
    positions:
    - -1.6904269210076064
    - -0.5771436260897308
    - -1.7966679487151593
    - 1.323488401917058
    - -1.511198660879057
    - -0.10415198427726086
    time_from_start:
      nsecs: 590924
      secs: 1
    velocities:
    - -0.00442277025253166
    - 0.0942
    - -0.044003819505178204
    - -0.049567345110975686
    - 0.0030045335275383444
    - -0.004221592770666859
  - accelerations:
    - 0.00884031654906536
    - -0.18828873565052892
    - 0.08795566388985233
    - 0.0990761437420278
    - -0.006005518249679603
    - 0.008438199206160046
    effort: []
    positions:
    - -1.6948523047816177
    - -0.4828879610406031
    - -1.840697771137265
    - 1.2738917662678582
    - -1.508192351900283
    - -0.10837607168878734
    time_from_start:
      nsecs: 1181848
      secs: 2
    velocities:
    - 0.0
    - 0.0
    - 0.0
    - 0.0
    - 0.0
    - 0.0
multi_dof_joint_trajectory:
  header:
    frame_id: ''
    seq: 0
    stamp:
      nsecs: 0
      secs: 0
  joint_names: []
  points: []
---
joint_trajectory:
  header:
    frame_id: base
    seq: 0
    stamp:
      nsecs: 0
      secs: 0
  joint_names:
  - joint_1
  - joint_2
  - joint_3
  - joint_4
  - joint_5
  - joint_6
  points:
  - accelerations:
    - 0.04244175206475381
    - 0.0
    - 0.0
    - 0.0
    - 0.0
    - 0.0
    effort: []
    positions:
    - -1.6948523047816177
    - -0.4828879610406031
    - -1.840697771137265
    - 1.2738917662678582
    - -1.508192351900283
    - -0.10837607168878734
    time_from_start:
      nsecs: 0
      secs: 0
    velocities:
    - 0.0
    - 0.0
    - 0.0
    - 0.0
    - 0.0
    - 0.0
  - accelerations:
    - -7.585360125747026e-17
    - 5.231282845342777e-18
    - 0.0
    - -1.4647591966959775e-16
    - 5.427455952043131e-16
    - -4.1850262762742217e-17
    effort: []
    positions:
    - -1.6855183131528835
    - -0.4992990906704091
    - -1.7782232476721482
    - 1.2282607234249667
    - -1.5129136427047571
    - -0.09945392652692336
    time_from_start:
      nsecs: 663211502
      secs: 0
    velocities:
    - 0.014073929061943331
    - -0.02474494122377597
    - 0.0942
    - -0.06880315362790171
    - -0.0071188313109709685
    - 0.01345294093706642
  - accelerations:
    - -0.042441752064753514
    - 0.07462156840879978
    - -0.2840722748355065
    - 0.20748480219676094
    - 0.021467755888298332
    - -0.040569082114863736
    effort: []
    positions:
    - -1.6761843215241492
    - -0.5157102203002152
    - -1.7157487242070313
    - 1.182629680582075
    - -1.5176349335092312
    - -0.09053178136505938
    time_from_start:
      nsecs: 326423004
      secs: 1
    velocities:
    - 0.0
    - 0.0
    - 0.0
    - 0.0
    - 0.0
    - 0.0
multi_dof_joint_trajectory:
  header:
    frame_id: ''
    seq: 0
    stamp:
      nsecs: 0
      secs: 0
  joint_names: []
  points: []
---
joint_trajectory:
  header:
    frame_id: base
    seq: 0
    stamp:
      nsecs: 0
      secs: 0
  joint_names:
  - joint_1
  - joint_2
  - joint_3
  - joint_4
  - joint_5
  - joint_6
  points:
  - accelerations:
    - 0.0078145546189804
    - 0.0
    - 0.0
    - 0.0
    - 0.0
    - 0.0
    effort: []
    positions:
    - -1.6761843215241492
    - -0.5157102203002152
    - -1.7157487242070313
    - 1.182629680582075
    - -1.5176349335092312
    - -0.09053178136505938
    time_from_start:
      nsecs: 0
      secs: 0
    velocities:
    - 0.0
    - 0.0
    - 0.0
    - 0.0
    - 0.0
    - 0.0
  - accelerations:
    - 0.0
    - 0.0
    - 2.4754417449590217e-16
    - 0.0
    - 0.0
    - 0.0
    effort: []
    positions:
    - -1.6726353121800204
    - -0.6054876890719635
    - -1.672488410953835
    - 1.228465383435638
    - -1.5200216955788555
    - -0.08811443879110095
    time_from_start:
      nsecs: 953051685
      secs: 0
    velocities:
    - 0.0037238372254279947
    - -0.0942
    - 0.04539136115333973
    - 0.04809361711659617
    - -0.0025043364447067166
    - 0.002536423376402231
  - accelerations:
    - -0.0078145546189804
    - 0.19768077940714696
    - -0.09525477336670396
    - -0.10092551715623815
    - 0.00525540531090602
    - -0.005322740445368368
    effort: []
    positions:
    - -1.6690863028358915
    - -0.6952651578437118
    - -1.6292280977006384
    - 1.274301086289201
    - -1.5224084576484798
    - -0.08569709621714253
    time_from_start:
      nsecs: 906103371
      secs: 1
    velocities:
    - 0.0
    - 0.0
    - 0.0
    - 0.0
    - 0.0
    - 0.0
multi_dof_joint_trajectory:
  header:
    frame_id: ''
    seq: 0
    stamp:
      nsecs: 0
      secs: 0
  joint_names: []
  points: []
---
joint_trajectory:
  header:
    frame_id: base
    seq: 0
    stamp:
      nsecs: 0
      secs: 0
  joint_names:
  - joint_1
  - joint_2
  - joint_3
  - joint_4
  - joint_5
  - joint_6
  points:
  - accelerations:
    - -0.013284227885661725
    - 0.0
    - 0.0
    - 0.0
    - 0.0
    - 0.0
    effort: []
    positions:
    - -1.6690863028358915
    - -0.6952651578437118
    - -1.6292280977006384
    - 1.274301086289201
    - -1.5224084576484798
    - -0.08569709621714253
    time_from_start:
      nsecs: 0
      secs: 0
    velocities:
    - 0.0
    - 0.0
    - 0.0
    - 0.0
    - 0.0
    - 0.0
  - accelerations:
    - 5.179688371330717e-16
    - -2.59646782808394e-16
    - 0.0
    - 5.086957377470577e-16
    - 0.0
    - 3.245584785104925e-17
    effort: []
    positions:
    - -1.6719337330757833
    - -0.6837467714902052
    - -1.6909052464317482
    - 1.3243436380647937
    - -1.5207238598580881
    - -0.08791992881078287
    time_from_start:
      nsecs: 654746802
      secs: 0
    velocities:
    - -0.004348902861368806
    - 0.017592123125384093
    - -0.0942
    - 0.07643038749751907
    - 0.002572899609006261
    - -0.003394949906549473
  - accelerations:
    - 0.01328422788566069
    - -0.05373717924724026
    - 0.2877448190313036
    - -0.23346547790834482
    - -0.007859220088951362
    - 0.010370268009346243
    effort: []
    positions:
    - -1.6747811633156748
    - -0.6722283851366988
    - -1.752582395162858
    - 1.3743861898403866
    - -1.5190392620676965
    - -0.09014276140442319
    time_from_start:
      nsecs: 309493604
      secs: 1
    velocities:
    - 0.0
    - 0.0
    - 0.0
    - 0.0
    - 0.0
    - 0.0
multi_dof_joint_trajectory:
  header:
    frame_id: ''
    seq: 0
    stamp:
      nsecs: 0
      secs: 0
  joint_names: []
  points: []
---
joint_trajectory:
  header:
    frame_id: base
    seq: 0
    stamp:
      nsecs: 0
      secs: 0
  joint_names:
  - joint_1
  - joint_2
  - joint_3
  - joint_4
  - joint_5
  - joint_6
  points:
  - accelerations:
    - -0.007823187061631922
    - 0.0
    - 0.0
    - 0.0
    - 0.0
    - 0.0
    effort: []
    positions:
    - -1.6747811633156748
    - -0.6722283851366988
    - -1.752582395162858
    - 1.3743861898403866
    - -1.5190392620676965
    - -0.09014276140442319
    time_from_start:
      nsecs: 0
      secs: 0
    velocities:
    - 0.0
    - 0.0
    - 0.0
    - 0.0
    - 0.0
    - 0.0
  - accelerations:
    - -2.6011201137786046e-18
    - 0.0
    - 1.9421696849546913e-16
    - -2.5664385122615566e-16
    - -2.2066168965221828e-16
    - -2.6011201137786046e-18
    effort: []
    positions:
    - -1.678695660041899
    - -0.5779934338720122
    - -1.7964976084097102
    - 1.3242564859581187
    - -1.5168041593329673
    - -0.09398158523766324
    time_from_start:
      nsecs: 371033
      secs: 1
    velocities:
    - -0.003913044859275006
    - 0.0942
    - -0.04389892531735917
    - -0.0501111110297697
    - 0.002234273746479623
    - -0.003837400032982503
  - accelerations:
    - 0.007823187061631933
    - -0.18833012339711994
    - 0.08776528685795314
    - 0.10018505014653216
    - -0.004466890131395244
    - 0.007671953521610478
    effort: []
    positions:
    - -1.682610156768123
    - -0.4837584826073256
    - -1.840412821656562
    - 1.2741267820758506
    - -1.5145690565982384
    - -0.0978204090709033
    time_from_start:
      nsecs: 742065
      secs: 2
    velocities:
    - 0.0
    - 0.0
    - 0.0
    - 0.0
    - 0.0
    - 0.0
multi_dof_joint_trajectory:
  header:
    frame_id: ''
    seq: 0
    stamp:
      nsecs: 0
      secs: 0
  joint_names: []
  points: []
---
joint_trajectory:
  header:
    frame_id: base
    seq: 0
    stamp:
      nsecs: 0
      secs: 0
  joint_names:
  - joint_1
  - joint_2
  - joint_3
  - joint_4
  - joint_5
  - joint_6
  points:
  - accelerations:
    - 0.038207619657114444
    - 0.0
    - 0.0
    - 0.0
    - 0.0
    - 0.0
    effort: []
    positions:
    - -1.682610156768123
    - -0.4837584826073256
    - -1.840412821656562
    - 1.2741267820758506
    - -1.5145690565982384
    - -0.0978204090709033
    time_from_start:
      nsecs: 0
      secs: 0
    velocities:
    - 0.0
    - 0.0
    - 0.0
    - 0.0
    - 0.0
    - 0.0
  - accelerations:
    - 0.0
    - 1.1566717923932828e-16
    - 0.0
    - 4.827847481293702e-16
    - 4.664404728020738e-16
    - 0.0
    effort: []
    positions:
    - -1.6735178124852095
    - -0.5008048763451575
    - -1.7754254690165414
    - 1.2264817428583914
    - -1.5191648553128592
    - -0.08978815831609215
    time_from_start:
      nsecs: 689886971
      secs: 0
    velocities:
    - 0.013179469491468582
    - -0.024708966050647964
    - 0.0942
    - -0.06906209457624127
    - -0.006661669099145052
    - 0.011642850344964751
  - accelerations:
    - -0.038207619657114444
    - 0.07163192551830944
    - -0.27308821299901415
    - 0.20021278125047334
    - 0.019312349361743423
    - -0.03375292138982356
    effort: []
    positions:
    - -1.6644254682022959
    - -0.5178512700829893
    - -1.7104381163765208
    - 1.1788367036409324
    - -1.5237606540274797
    - -0.081755907561281
    time_from_start:
      nsecs: 379773941
      secs: 1
    velocities:
    - 0.0
    - 0.0
    - 0.0
    - 0.0
    - 0.0
    - 0.0
multi_dof_joint_trajectory:
  header:
    frame_id: ''
    seq: 0
    stamp:
      nsecs: 0
      secs: 0
  joint_names: []
  points: []
---
joint_trajectory:
  header:
    frame_id: base
    seq: 0
    stamp:
      nsecs: 0
      secs: 0
  joint_names:
  - joint_1
  - joint_2
  - joint_3
  - joint_4
  - joint_5
  - joint_6
  points:
  - accelerations:
    - 0.006892975539932055
    - 0.0
    - 0.0
    - 0.0
    - 0.0
    - 0.0
    effort: []
    positions:
    - -1.6644254682022959
    - -0.5178512700829893
    - -1.7104381163765208
    - 1.1788367036409324
    - -1.5237606540274797
    - -0.081755907561281
    time_from_start:
      nsecs: 0
      secs: 0
    velocities:
    - 0.0
    - 0.0
    - 0.0
    - 0.0
    - 0.0
    - 0.0
  - accelerations:
    - 2.4941296109967403e-16
    - 0.0
    - -1.8968152069006289e-16
    - -1.8238607758659894e-16
    - -2.051843372849238e-18
    - 3.647721551731979e-18
    effort: []
    positions:
    - -1.6613076277573726
    - -0.6074474462820338
    - -1.6674737072584689
    - 1.2254842005157882
    - -1.5253172258275047
    - -0.0788836439888662
    time_from_start:
      nsecs: 951127136
      secs: 0
    velocities:
    - 0.003278048041462204
    - -0.0942
    - 0.04517209897361264
    - 0.04904443908241553
    - -0.0016365549265920393
    - 0.0030198524088839314
  - accelerations:
    - -0.006892975539932562
    - 0.1980807747930349
    - -0.09498645821359693
    - -0.10312909227956105
    - 0.003441295837056366
    - -0.006350049945990894
    effort: []
    positions:
    - -1.6581897873124491
    - -0.6970436224810783
    - -1.6245092981404172
    - 1.2721316973906438
    - -1.5268737976275297
    - -0.0760113804164514
    time_from_start:
      nsecs: 902254272
      secs: 1
    velocities:
    - 0.0
    - 0.0
    - 0.0
    - 0.0
    - 0.0
    - 0.0
multi_dof_joint_trajectory:
  header:
    frame_id: ''
    seq: 0
    stamp:
      nsecs: 0
      secs: 0
  joint_names: []
  points: []
---
joint_trajectory:
  header:
    frame_id: base
    seq: 0
    stamp:
      nsecs: 0
      secs: 0
  joint_names:
  - joint_1
  - joint_2
  - joint_3
  - joint_4
  - joint_5
  - joint_6
  points:
  - accelerations:
    - -0.011929531982829112
    - 0.0
    - 0.0
    - 0.0
    - 0.0
    - 0.0
    effort: []
    positions:
    - -1.6581897873124491
    - -0.6970436224810783
    - -1.6245092981404172
    - 1.2721316973906438
    - -1.5268737976275297
    - -0.0760113804164514
    time_from_start:
      nsecs: 0
      secs: 0
    velocities:
    - 0.0
    - 0.0
    - 0.0
    - 0.0
    - 0.0
    - 0.0
  - accelerations:
    - 5.393162068674006e-16
    - -9.54072896669603e-17
    - 0.0
    - -4.240323985198235e-16
    - -8.613158094933916e-18
    - 4.63785435881057e-17
    effort: []
    positions:
    - -1.6607454045349708
    - -0.6855467623352803
    - -1.6861690965925868
    - 1.3224176239919354
    - -1.5258255665535065
    - -0.07768207678755742
    time_from_start:
      nsecs: 654562616
      secs: 0
    velocities:
    - -0.003904312832749051
    - 0.01756418692439077
    - -0.0942
    - 0.07682370693307031
    - 0.0016014221527107435
    - -0.0025523858674346422
  - accelerations:
    - 0.011929531982827991
    - -0.05366694182632001
    - 0.2878257867444499
    - -0.23473294998551988
    - -0.004893106061719316
    - 0.007798752339382026
    effort: []
    positions:
    - -1.6633010217574922
    - -0.6740499021894824
    - -1.7478288950447567
    - 1.372703550593227
    - -1.5247773354794834
    - -0.07935277315866343
    time_from_start:
      nsecs: 309125233
      secs: 1
    velocities:
    - 0.0
    - 0.0
    - 0.0
    - 0.0
    - 0.0
    - 0.0
multi_dof_joint_trajectory:
  header:
    frame_id: ''
    seq: 0
    stamp:
      nsecs: 0
      secs: 0
  joint_names: []
  points: []
---
joint_trajectory:
  header:
    frame_id: base
    seq: 0
    stamp:
      nsecs: 0
      secs: 0
  joint_names:
  - joint_1
  - joint_2
  - joint_3
  - joint_4
  - joint_5
  - joint_6
  points:
  - accelerations:
    - -0.0067954634514131715
    - 0.0
    - 0.0
    - 0.0
    - 0.0
    - 0.0
    effort: []
    positions:
    - -1.6633010217574922
    - -0.6740499021894824
    - -1.7478288950447567
    - 1.372703550593227
    - -1.5247773354794834
    - -0.07935277315866343
    time_from_start:
      nsecs: 0
      secs: 0
    velocities:
    - 0.0
    - 0.0
    - 0.0
    - 0.0
    - 0.0
    - 0.0
  - accelerations:
    - -2.1709225498098373e-18
    - 0.0
    - -2.778780863756592e-17
    - -3.4734760796957397e-17
    - 8.68369019923935e-19
    - -2.605107059771805e-18
    effort: []
    positions:
    - -1.6666908755218084
    - -0.5799591713551826
    - -1.7916007762576127
    - 1.3218789766660215
    - -1.5234151490503829
    - -0.08319184216924533
    time_from_start:
      nsecs: 998840030
      secs: 0
    velocities:
    - -0.0033937904591360857
    - 0.0942
    - -0.04382271424283518
    - -0.050883597369162606
    - 0.0013637683593641183
    - -0.003843527386706011
  - accelerations:
    - 0.006795463451413181
    - -0.18861879212368107
    - 0.08774721261215296
    - 0.10188537871209308
    - -0.0027307042535005765
    - 0.007695981880836268
    effort: []
    positions:
    - -1.6700807292861246
    - -0.4858684405208829
    - -1.8353726574704687
    - 1.271054402738816
    - -1.5220529626212824
    - -0.08703091117982723
    time_from_start:
      nsecs: 997680060
      secs: 1
    velocities:
    - 0.0
    - 0.0
    - 0.0
    - 0.0
    - 0.0
    - 0.0
multi_dof_joint_trajectory:
  header:
    frame_id: ''
    seq: 0
    stamp:
      nsecs: 0
      secs: 0
  joint_names: []
  points: []
---
joint_trajectory:
  header:
    frame_id: base
    seq: 0
    stamp:
      nsecs: 0
      secs: 0
  joint_names:
  - joint_1
  - joint_2
  - joint_3
  - joint_4
  - joint_5
  - joint_6
  points:
  - accelerations:
    - 0.03904637196247931
    - 0.0
    - 0.0
    - 0.0
    - 0.0
    - 0.0
    effort: []
    positions:
    - -1.6700807292861246
    - -0.4858684405208829
    - -1.8353726574704687
    - 1.271054402738816
    - -1.5220529626212824
    - -0.08703091117982723
    time_from_start:
      nsecs: 0
      secs: 0
    velocities:
    - 0.0
    - 0.0
    - 0.0
    - 0.0
    - 0.0
    - 0.0
  - accelerations:
    - 0.0
    - 1.2526692857436036e-16
    - 0.0
    - -5.010677142974415e-16
    - -5.023725781367577e-16
    - 0.0
    effort: []
    positions:
    - -1.661454503532121
    - -0.502532405268356
    - -1.77275656431448
    - 1.2262529963887636
    - -1.525879035721399
    - -0.07858553829087066
    time_from_start:
      nsecs: 664714365
      secs: 0
    velocities:
    - 0.01297734216669846
    - -0.02506936156654524
    - 0.0942
    - -0.06739948574660168
    - -0.0057559657248675705
    - 0.012705266107194371
  - accelerations:
    - -0.03904637196247931
    - 0.07542897490220361
    - -0.28343001144750635
    - 0.2027923250182102
    - 0.01731861392028362
    - -0.03822774647776767
    effort: []
    positions:
    - -1.6528282777781176
    - -0.519196370015829
    - -1.7101404711584913
    - 1.181451590038711
    - -1.5297051088215157
    - -0.07014016540191409
    time_from_start:
      nsecs: 329428729
      secs: 1
    velocities:
    - 0.0
    - 0.0
    - 0.0
    - 0.0
    - 0.0
    - 0.0
multi_dof_joint_trajectory:
  header:
    frame_id: ''
    seq: 0
    stamp:
      nsecs: 0
      secs: 0
  joint_names: []
  points: []
---
joint_trajectory:
  header:
    frame_id: base
    seq: 0
    stamp:
      nsecs: 0
      secs: 0
  joint_names:
  - joint_1
  - joint_2
  - joint_3
  - joint_4
  - joint_5
  - joint_6
  points:
  - accelerations:
    - 0.005982207376567084
    - 0.0
    - 0.0
    - 0.0
    - 0.0
    - 0.0
    effort: []
    positions:
    - -1.6528282777781176
    - -0.519196370015829
    - -1.7101404711584913
    - 1.181451590038711
    - -1.5297051088215157
    - -0.07014016540191409
    time_from_start:
      nsecs: 0
      secs: 0
    velocities:
    - 0.0
    - 0.0
    - 0.0
    - 0.0
    - 0.0
    - 0.0
  - accelerations:
    - 4.112509157668365e-18
    - 0.0
    - -1.9008931217667106e-16
    - 6.580014652269383e-17
    - -2.4903527676991763e-16
    - 1.8277818478526064e-17
    effort: []
    positions:
    - -1.6501339944723934
    - -0.6086003388915462
    - -1.667070018872606
    - 1.2271034726114283
    - -1.5315152938240435
    - -0.06803834356725588
    time_from_start:
      nsecs: 949086718
      secs: 0
    velocities:
    - 0.0028388167839845536
    - -0.0942
    - 0.04538094512303433
    - 0.048100854944460855
    - -0.0019072914701938539
    - 0.0022145730140910994
  - accelerations:
    - -0.005982207376567099
    - 0.19850662362283916
    - -0.09563076638202628
    - -0.10136240242459531
    - 0.004019214331346564
    - -0.0046667453481261155
    effort: []
    positions:
    - -1.6474397111666692
    - -0.6980043077672633
    - -1.6239995665867208
    - 1.2727553551841455
    - -1.5333254788265716
    - -0.06593652173259766
    time_from_start:
      nsecs: 898173437
      secs: 1
    velocities:
    - 0.0
    - 0.0
    - 0.0
    - 0.0
    - 0.0
    - 0.0
multi_dof_joint_trajectory:
  header:
    frame_id: ''
    seq: 0
    stamp:
      nsecs: 0
      secs: 0
  joint_names: []
  points: []
---
joint_trajectory:
  header:
    frame_id: base
    seq: 0
    stamp:
      nsecs: 0
      secs: 0
  joint_names:
  - joint_1
  - joint_2
  - joint_3
  - joint_4
  - joint_5
  - joint_6
  points:
  - accelerations:
    - -0.010913558310845915
    - 0.0
    - 0.0
    - 0.0
    - 0.0
    - 0.0
    effort: []
    positions:
    - -1.6474397111666692
    - -0.6980043077672633
    - -1.6239995665867208
    - 1.2727553551841455
    - -1.5333254788265716
    - -0.06593652173259766
    time_from_start:
      nsecs: 0
      secs: 0
    velocities:
    - 0.0
    - 0.0
    - 0.0
    - 0.0
    - 0.0
    - 0.0
  - accelerations:
    - 5.397542928434037e-16
    - -1.0078949940073387e-16
    - 2.1218841979101868e-17
    - -4.2437683958203737e-16
    - -1.6577220296173335e-17
    - -1.5251042672479468e-17
    effort: []
    positions:
    - -1.6497738866656215
    - -0.6865021696389504
    - -1.685609319502721
    - 1.322970946945715
    - -1.5314010970380412
    - -0.06795223732693495
    time_from_start:
      nsecs: 654031347
      secs: 0
    velocities:
    - -0.0035689046229593654
    - 0.01758652421742931
    - -0.0942
    - 0.07677857027586546
    - 0.0029423387678038163
    - -0.0030819862115898933
  - accelerations:
    - 0.010913558310844795
    - -0.05377884191616665
    - 0.28805958732210585
    - -0.23478559733383297
    - -0.008997546615874727
    - 0.009424582550350386
    effort: []
    positions:
    - -1.6521080621645736
    - -0.6750000315106375
    - -1.7472190724187215
    - 1.3731865387072844
    - -1.5294767152495108
    - -0.06996795292127225
    time_from_start:
      nsecs: 308062695
      secs: 1
    velocities:
    - 0.0
    - 0.0
    - 0.0
    - 0.0
    - 0.0
    - 0.0
multi_dof_joint_trajectory:
  header:
    frame_id: ''
    seq: 0
    stamp:
      nsecs: 0
      secs: 0
  joint_names: []
  points: []
---
joint_trajectory:
  header:
    frame_id: base
    seq: 0
    stamp:
      nsecs: 0
      secs: 0
  joint_names:
  - joint_1
  - joint_2
  - joint_3
  - joint_4
  - joint_5
  - joint_6
  points:
  - accelerations:
    - -0.0057673422197657455
    - 0.0
    - 0.0
    - 0.0
    - 0.0
    - 0.0
    effort: []
    positions:
    - -1.6521080621645736
    - -0.6750000315106375
    - -1.7472190724187215
    - 1.3731865387072844
    - -1.5294767152495108
    - -0.06996795292127225
    time_from_start:
      nsecs: 0
      secs: 0
    velocities:
    - 0.0
    - 0.0
    - 0.0
    - 0.0
    - 0.0
    - 0.0
  - accelerations:
    - -3.4798114293995824e-18
    - 0.0
    - -5.567698287039332e-17
    - -5.567698287039332e-17
    - 2.242303489819356e-16
    - -1.8269010004347805e-17
    effort: []
    positions:
    - -1.6549745810608567
    - -0.5810806023965083
    - -1.7908133709912384
    - 1.322707730849113
    - -1.5287800690579543
    - -0.0731650843655246
    time_from_start:
      nsecs: 997021540
      secs: 0
    velocities:
    - -0.00287508221224105
    - 0.0942
    - -0.043724530315669224
    - -0.050629606089932895
    - 0.000698727322595723
    - -0.0032066824179967706
  - accelerations:
    - 0.005767342219765759
    - -0.18896281810267232
    - 0.08771030221512303
    - 0.10156170961976586
    - -0.0014016293414335877
    - 0.006432523847823385
    effort: []
    positions:
    - -1.6578410999571398
    - -0.4871611732823792
    - -1.8344076695637552
    - 1.2722289229909418
    - -1.5280834228663975
    - -0.07636221580977696
    time_from_start:
      nsecs: 994043081
      secs: 1
    velocities:
    - 0.0
    - 0.0
    - 0.0
    - 0.0
    - 0.0
    - 0.0
multi_dof_joint_trajectory:
  header:
    frame_id: ''
    seq: 0
    stamp:
      nsecs: 0
      secs: 0
  joint_names: []
  points: []
---
joint_trajectory:
  header:
    frame_id: base
    seq: 0
    stamp:
      nsecs: 0
      secs: 0
  joint_names:
  - joint_1
  - joint_2
  - joint_3
  - joint_4
  - joint_5
  - joint_6
  points:
  - accelerations:
    - 0.0349709145425155
    - 0.0
    - 0.0
    - 0.0
    - 0.0
    - 0.0
    effort: []
    positions:
    - -1.6578410999571398
    - -0.4871611732823792
    - -1.8344076695637552
    - 1.2722289229909418
    - -1.5280834228663975
    - -0.07636221580977696
    time_from_start:
      nsecs: 0
      secs: 0
    velocities:
    - 0.0
    - 0.0
    - 0.0
    - 0.0
    - 0.0
    - 0.0
  - accelerations:
    - 5.796988291900378e-17
    - 1.1089890645374638e-16
    - 0.0
    - -8.065375014817918e-16
    - 4.410751961228549e-16
    - 4.284730476622019e-17
    effort: []
    positions:
    - -1.6495580871764954
    - -0.5041751746315086
    - -1.7695731090333724
    - 1.2245174154743994
    - -1.5318142993857453
    - -0.06823367999737448
    time_from_start:
      nsecs: 688264974
      secs: 0
    velocities:
    - 0.012034627790390499
    - -0.024720132503048647
    - 0.0942
    - -0.06932142319299182
    - -0.005420697930972401
    - 0.01181018375484304
  - accelerations:
    - -0.034970914542515726
    - 0.07183318473165061
    - -0.2737317852518382
    - 0.20143818393647464
    - 0.015751776241570908
    - -0.034318712137637444
    effort: []
    positions:
    - -1.641275074395851
    - -0.521189175980638
    - -1.7047385485029898
    - 1.1768059079578568
    - -1.5355451759050929
    - -0.060105144184972
    time_from_start:
      nsecs: 376529948
      secs: 1
    velocities:
    - 0.0
    - 0.0
    - 0.0
    - 0.0
    - 0.0
    - 0.0
multi_dof_joint_trajectory:
  header:
    frame_id: ''
    seq: 0
    stamp:
      nsecs: 0
      secs: 0
  joint_names: []
  points: []
---
joint_trajectory:
  header:
    frame_id: base
    seq: 0
    stamp:
      nsecs: 0
      secs: 0
  joint_names:
  - joint_1
  - joint_2
  - joint_3
  - joint_4
  - joint_5
  - joint_6
  points:
  - accelerations:
    - 0.005039462855930616
    - 0.0
    - 0.0
    - 0.0
    - 0.0
    - 0.0
    effort: []
    positions:
    - -1.641275074395851
    - -0.521189175980638
    - -1.7047385485029898
    - 1.1768059079578568
    - -1.5355451759050929
    - -0.060105144184972
    time_from_start:
      nsecs: 0
      secs: 0
    velocities:
    - 0.0
    - 0.0
    - 0.0
    - 0.0
    - 0.0
    - 0.0
  - accelerations:
    - 2.4678765906899054e-16
    - 0.0
    - 0.0
    - -2.413034888674574e-16
    - 0.0
    - 7.540734027108044e-18
    effort: []
    positions:
    - -1.639006069543786
    - -0.6105797011277239
    - -1.6616837735646246
    - 1.2232070907521413
    - -1.5365202315581874
    - -0.05831362332133749
    time_from_start:
      nsecs: 948944004
      secs: 0
    velocities:
    - 0.002391084029463339
    - -0.0942
    - 0.04537124927413201
    - 0.04889770377821842
    - -0.001027516533439882
    - 0.0018879099890809028
  - accelerations:
    - -0.00503946285593111
    - 0.19853647767252836
    - -0.095624713572064
    - -0.1030570899618062
    - 0.0021655999288687985
    - -0.003978970269584974
    effort: []
    positions:
    - -1.6367370646917208
    - -0.6999702262748098
    - -1.6186289986262594
    - 1.2696082735464256
    - -1.537495287211282
    - -0.05652210245770298
    time_from_start:
      nsecs: 897888007
      secs: 1
    velocities:
    - 0.0
    - 0.0
    - 0.0
    - 0.0
    - 0.0
    - 0.0
multi_dof_joint_trajectory:
  header:
    frame_id: ''
    seq: 0
    stamp:
      nsecs: 0
      secs: 0
  joint_names: []
  points: []
---
joint_trajectory:
  header:
    frame_id: base
    seq: 0
    stamp:
      nsecs: 0
      secs: 0
  joint_names:
  - joint_1
  - joint_2
  - joint_3
  - joint_4
  - joint_5
  - joint_6
  points:
  - accelerations:
    - -0.008706193826195642
    - 0.0
    - 0.0
    - 0.0
    - 0.0
    - 0.0
    effort: []
    positions:
    - -1.6367370646917208
    - -0.6999702262748098
    - -1.6186289986262594
    - 1.2696082735464256
    - -1.537495287211282
    - -0.05652210245770298
    time_from_start:
      nsecs: 0
      secs: 0
    velocities:
    - 0.0
    - 0.0
    - 0.0
    - 0.0
    - 0.0
    - 0.0
  - accelerations:
    - 1.5241940920130492e-17
    - -9.542780402168655e-17
    - -2.1206178671485902e-17
    - -9.330718615453796e-16
    - -5.281663875366957e-16
    - 1.9880792504518032e-17
    effort: []
    positions:
    - -1.6386013569202647
    - -0.6883976532887566
    - -1.6802755419166786
    - 1.3196418432182742
    - -1.5363132243667224
    - -0.05885308838807495
    time_from_start:
      nsecs: 654421903
      secs: 0
    velocities:
    - -0.002848761967098455
    - 0.01768365778678838
    - -0.0942
    - 0.07645460737164503
    - 0.0018062702953663685
    - -0.003561900845057853
  - accelerations:
    - 0.008706193826195582
    - -0.05404360000098651
    - 0.2878876746809928
    - -0.23365540482878014
    - -0.0055202012226998306
    - 0.010885640676517691
    effort: []
    positions:
    - -1.6404656491488085
    - -0.6768250803027034
    - -1.741922085207098
    - 1.3696754128901225
    - -1.535131161522163
    - -0.06118407431844693
    time_from_start:
      nsecs: 308843807
      secs: 1
    velocities:
    - 0.0
    - 0.0
    - 0.0
    - 0.0
    - 0.0
    - 0.0
multi_dof_joint_trajectory:
  header:
    frame_id: ''
    seq: 0
    stamp:
      nsecs: 0
      secs: 0
  joint_names: []
  points: []
---
joint_trajectory:
  header:
    frame_id: base
    seq: 0
    stamp:
      nsecs: 0
      secs: 0
  joint_names:
  - joint_1
  - joint_2
  - joint_3
  - joint_4
  - joint_5
  - joint_6
  points:
  - accelerations:
    - -0.00535233768914585
    - 0.0
    - 0.0
    - 0.0
    - 0.0
    - 0.0
    effort: []
    positions:
    - -1.6404656491488085
    - -0.6768250803027034
    - -1.741922085207098
    - 1.3696754128901225
    - -1.535131161522163
    - -0.06118407431844693
    time_from_start:
      nsecs: 0
      secs: 0
    velocities:
    - 0.0
    - 0.0
    - 0.0
    - 0.0
    - 0.0
    - 0.0
  - accelerations:
    - 0.0
    - 0.0
    - 0.0
    - 0.0
    - -2.244963317912194e-16
    - -1.3949286635570913e-17
    effort: []
    positions:
    - -1.6431144542200102
    - -0.583107914282004
    - -1.785627304289148
    - 1.3195964445725081
    - -1.5339774287551036
    - -0.06330981940576083
    time_from_start:
      nsecs: 994874374
      secs: 0
    velocities:
    - -0.0026624518036758383
    - 0.0942
    - -0.043930389835089276
    - -0.05033697684026566
    - 0.00115967683693064
    - -0.002136696997226124
  - accelerations:
    - 0.00535233768914585
    - -0.18937064311227841
    - 0.08831344135078507
    - 0.10119262926294026
    - -0.002331303061697951
    - 0.004295410663490304
    effort: []
    positions:
    - -1.645763259291212
    - -0.4893907482613047
    - -1.829332523371198
    - 1.2695174762548938
    - -1.5328236959880444
    - -0.06543556449307475
    time_from_start:
      nsecs: 989748748
      secs: 1
    velocities:
    - 0.0
    - 0.0
    - 0.0
    - 0.0
    - 0.0
    - 0.0
multi_dof_joint_trajectory:
  header:
    frame_id: ''
    seq: 0
    stamp:
      nsecs: 0
      secs: 0
  joint_names: []
  points: []
